[{"code":"0200","country":"au","state":"ACT","stateFull":"Australian Capital Territory","locality":"Anu","localities":["Anu","Australian National University"],"lga":"Unincorporated ACT","electorate":"Durack","type":"Delivery Area","remoteness":"","lat":-35.2777,"lng":149.119,"localityCount":2},{"code":"0800","country":"au","state":"NT","stateFull":"Northern Territory","locality":"Darwin","localities":["Darwin","Darwin City"],"lga":"Darwin Waterfront Precinct","electorate":"Solomon","type":"Delivery Area","remoteness":"","lat":-12.3932794,"lng":130.7766611,"localityCount":2},{"code":"0801","country":"au","state":"NT","stateFull":"Northern Territory","locality":"Darwin","localities":["Darwin"],"lga":"Darwin","electorate":"Lingiari","type":"Delivery Area","remoteness":"","lat":-12.4634403,"lng":130.8456418,"localityCount":1},{"code":"0803","country":"au","state":"NT","stateFull":"Northern Territory","locality":"Wagait Beach","localities":["Wagait Beach"],"lga":"","electorate":"","type":"Post Office Boxes","remoteness":"","lat":-12.43399126,"lng":130.7459083,"localityCount":1},{"code":"0804","country":"au","state":"NT","stateFull":"Northern Territory","locality":"Parap","localities":["Parap"],"lga":"Darwin","electorate":"Durack","type":"Delivery Area","remoteness":"","lat":-12.4324801,"lng":130.8462536,"localityCount":1},{"code":"0810","country":"au","state":"NT","stateFull":"Northern Territory","locality":"Alawa","localities":["Alawa","Brinkin","Casuarina","Coconut Grove","Jingili","Lee Point","Lyons","Millner","Moil","Muirhead","Nakara","Nightcliff","Rapid Creek","Tiwi","Wagaman","Wanguri"],"lga":"Darwin","electorate":"Solomon","type":"Delivery Area","remoteness":"","lat":-12.38,"lng":130.873,"localityCount":16},{"code":"0811","country":"au","state":"NT","stateFull":"Northern Territory","locality":"Casuarina","localities":["Casuarina"],"lga":"Darwin","electorate":"Durack","type":"Delivery Area","remoteness":"","lat":-12.373333,"lng":130.881667,"localityCount":1},{"code":"0812","country":"au","state":"NT","stateFull":"Northern Territory","locality":"Anula","localities":["Anula","Buffalo Creek","Holmes","Karama","Leanyer","Malak","Marrara","Northlakes","Sanderson","Woodleigh Gardens","Wulagi"],"lga":"Darwin","electorate":"Solomon","type":"Delivery Area","remoteness":"","lat":-12.3928,"lng":130.89,"localityCount":11},{"code":"0813","country":"au","state":"NT","stateFull":"Northern Territory","locality":"Karama","localities":["Karama","Sanderson"],"lga":"Darwin","electorate":"Durack","type":"Post Office Boxes","remoteness":"","lat":-19.4914,"lng":132.551,"localityCount":2},{"code":"0814","country":"au","state":"NT","stateFull":"Northern Territory","locality":"Nightcliff","localities":["Nightcliff"],"lga":"Darwin","electorate":"Durack","type":"Delivery Area","remoteness":"","lat":-12.383,"lng":130.849,"localityCount":1},{"code":"0815","country":"au","state":"NT","stateFull":"Northern Territory","locality":"Charles Darwin University","localities":["Charles Darwin University"],"lga":"Darwin","electorate":"Solomon","type":"Delivery Area","remoteness":"","lat":-12.3718,"lng":130.869,"localityCount":1},{"code":"0820","country":"au","state":"NT","stateFull":"Northern Territory","locality":"Bagot","localities":["Bagot","Bayview","Charles Darwin","Coonawarra","Cullen Bay","Darwin Dc","Darwin International Airport","Darwin Mc","East Point","Eaton","Fannie Bay","Larrakeyah","Ludmilla","Parap","Raaf Base Darwin","Stuart Park","The Gardens","The Narrows","Winnellie","Woolner"],"lga":"Unincorporated NT","electorate":"Solomon","type":"Delivery Area","remoteness":"","lat":-12.411487,"lng":130.85541,"localityCount":20},{"code":"0821","country":"au","state":"NT","stateFull":"Northern Territory","locality":"Winnellie","localities":["Winnellie"],"lga":"East Arnhem","electorate":"Lingiari","type":"Delivery Area","remoteness":"","lat":-12.428889,"lng":130.869722,"localityCount":1},{"code":"0822","country":"au","state":"NT","stateFull":"Northern Territory","locality":"Acacia Hills","localities":["Acacia Hills","Angurugu","Anindilyakwa","Annie River","Bathurst Island","Bees Creek","Belyuen","Black Jungle","Blackmore","Border Store","Burrundie","Bynoe","Bynoe Harbour","Camp Creek","Channel Island","Charles Darwin","Charlotte","Claravale","Cobourg","Collett Creek","Coomalie Creek","Cox Peninsula","Croker Island","Daly","Daly River","Darwin Mc","Darwin River Dam","Delissaville","Douglas-Daly","East Arm","East Arnhem","Elrundie","Eva Valley","Finniss Valley","Fleming","Fly Creek","Freds Pass","Galiwinku","Glyde Point","Goulbourn Island","Goulburn Island","Gunbalanya","Gunn Point","Hayes Creek","Hidden Valley","Hotham","Hughes","Kakadu","Koolpinyah","Lake Bennett","Lambells Lagoon","Litchfield Park","Livingstone","Lloyd Creek","Mandorah","Maningrida","Mapuru","Maranunga","Margaret River","Marrakai","Mcminns Lagoon","Micket Creek","Mickett Creek","Middle Point","Milikapiti","Milingimbi","Millwood","Milyakburra","Minjilang","Mount Bundey","Murrumujuk","Nauiyu","Nemarluk","Nganmarriyanga","Nguiu","Numbulwar","Numburindi","Oenpelli","Peppimenarti","Pirlangimpi","Point Stephens","Point Stuart","Pularumpi","Pulumpa","Rakula","Ramingining","Robin Falls","Rum Jungle","Sandpalms Roadhouse","Southport","Stapleton","Thamarrurr","Tipperary","Tivendale","Tiwi Islands","Tortilla Flats","Tumbling Waters","Umbakumba","Vernon Islands","Virginia","Wadeye","Wagait Beach","Wak Wak","Warruwi","Weddell","West Arnhem","Wickham","Winnellie","Wishart","Woolaning","Wurrumiyanga"],"lga":"Palmerston","electorate":"Solomon","type":"Delivery Area","remoteness":"","lat":-12.7541536,"lng":131.1489404,"localityCount":111},{"code":"0828","country":"au","state":"NT","stateFull":"Northern Territory","locality":"Berrimah","localities":["Berrimah","Knuckey Lagoon"],"lga":"Palmerston","electorate":"Solomon","type":"Delivery Area","remoteness":"","lat":-12.433889,"lng":130.922778,"localityCount":2},{"code":"0829","country":"au","state":"NT","stateFull":"Northern Territory","locality":"Holtze","localities":["Holtze","Pinelands"],"lga":"Palmerston","electorate":"Solomon","type":"Delivery Area","remoteness":"","lat":-12.4587,"lng":130.961,"localityCount":2},{"code":"0830","country":"au","state":"NT","stateFull":"Northern Territory","locality":"Archer","localities":["Archer","Driver","Durack","Farrar","Gray","Marlow Lagoon","Moulden","Palmerston","Shoal Bay","Woodroffe","Yarrawonga"],"lga":"Litchfield","electorate":"Solomon","type":"Delivery Area","remoteness":"","lat":-12.5164,"lng":130.971,"localityCount":11},{"code":"0831","country":"au","state":"NT","stateFull":"Northern Territory","locality":"Palmerston","localities":["Palmerston"],"lga":"Palmerston","electorate":"Solomon","type":"Delivery Area","remoteness":"","lat":-12.4784614,"lng":130.9851852,"localityCount":1},{"code":"0832","country":"au","state":"NT","stateFull":"Northern Territory","locality":"Bakewell","localities":["Bakewell","Bellamack","Gunn","Johnston","Mitchell","Rosebery","Rosebery Heights","Zuccoli"],"lga":"Palmerston","electorate":"Solomon","type":"Delivery Area","remoteness":"","lat":-12.4987,"lng":130.993,"localityCount":8},{"code":"0834","country":"au","state":"NT","stateFull":"Northern Territory","locality":"Virginia","localities":["Virginia"],"lga":"Litchfield","electorate":"Lingiari","type":"Delivery Area","remoteness":"","lat":-12.5405,"lng":131.029,"localityCount":1},{"code":"0835","country":"au","state":"NT","stateFull":"Northern Territory","locality":"Coolalinga","localities":["Coolalinga","Howard Springs","Virginia"],"lga":"Litchfield","electorate":"Lingiari","type":"Delivery Area","remoteness":"","lat":-12.5242,"lng":131.042,"localityCount":3},{"code":"0836","country":"au","state":"NT","stateFull":"Northern Territory","locality":"Girraween","localities":["Girraween","Herbert","Humpty Doo"],"lga":"Litchfield","electorate":"Lingiari","type":"Delivery Area","remoteness":"","lat":-12.542319,"lng":131.157189,"localityCount":3},{"code":"0837","country":"au","state":"NT","stateFull":"Northern Territory","locality":"Manton","localities":["Manton","Noonamah"],"lga":"Litchfield","electorate":"Lingiari","type":"Delivery Area","remoteness":"","lat":-12.8316015,"lng":131.1604226,"localityCount":2},{"code":"0838","country":"au","state":"NT","stateFull":"Northern Territory","locality":"Berry Springs","localities":["Berry Springs"],"lga":"Litchfield","electorate":"Lingiari","type":"Delivery Area","remoteness":"","lat":-12.7174085,"lng":131.0192349,"localityCount":1},{"code":"0839","country":"au","state":"NT","stateFull":"Northern Territory","locality":"Coolalinga","localities":["Coolalinga"],"lga":"Litchfield","electorate":"Lingiari","type":"Delivery Area","remoteness":"","lat":-12.5188645,"lng":131.0406631,"localityCount":1},{"code":"0840","country":"au","state":"NT","stateFull":"Northern Territory","locality":"Dundee Beach","localities":["Dundee Beach","Dundee Downs","Dundee Forest"],"lga":"Unincorporated NT","electorate":"Lingiari","type":"Delivery Area","remoteness":"","lat":-12.7575418,"lng":130.3928484,"localityCount":3},{"code":"0841","country":"au","state":"NT","stateFull":"Northern Territory","locality":"Darwin River","localities":["Darwin River"],"lga":"Litchfield","electorate":"Lingiari","type":"Delivery Area","remoteness":"","lat":-12.8357379,"lng":130.9788775,"localityCount":1},{"code":"0845","country":"au","state":"NT","stateFull":"Northern Territory","locality":"Batchelor","localities":["Batchelor"],"lga":"Coomalie","electorate":"Lingiari","type":"Delivery Area","remoteness":"","lat":-13.0785018,"lng":131.0625213,"localityCount":1},{"code":"0846","country":"au","state":"NT","stateFull":"Northern Territory","locality":"Adelaide River","localities":["Adelaide River"],"lga":"Coomalie","electorate":"Lingiari","type":"Delivery Area","remoteness":"","lat":-13.1748284,"lng":131.1401349,"localityCount":1},{"code":"0847","country":"au","state":"NT","stateFull":"Northern Territory","locality":"Pine Creek","localities":["Pine Creek"],"lga":"Victoria Daly","electorate":"Lingiari","type":"Delivery Area","remoteness":"","lat":-13.8380256,"lng":131.8004409,"localityCount":1},{"code":"0850","country":"au","state":"NT","stateFull":"Northern Territory","locality":"Cossack","localities":["Cossack","Emungalan","Katherine","Katherine East","Katherine South","Lansdowne"],"lga":"Roper Gulf","electorate":"Lingiari","type":"Delivery Area","remoteness":"","lat":-14.5052,"lng":132.193,"localityCount":6},{"code":"0851","country":"au","state":"NT","stateFull":"Northern Territory","locality":"Katherine","localities":["Katherine"],"lga":"Katherine","electorate":"Lingiari","type":"Delivery Area","remoteness":"","lat":-14.4521139,"lng":132.2715145,"localityCount":1},{"code":"0852","country":"au","state":"NT","stateFull":"Northern Territory","locality":"Arnold","localities":["Arnold","Baines","Barunga","Beswick","Beswick Creek","Binjari","Birdum","Bradshaw","Buchanan","Bulman Weemol","Creswell","Daguragu","Daly Waters","Delamere","Dunmarra","Edith","Edith River","Elsey","Elsey Station","Florina","Flying Fox","Gregory","Gulung Mardrulk","Gurindji","Helen Springs Station","Jilkminggan","Kalkarindji","Kalkaringi","Katherine","Lajamanu","Larrimah","Limmen","Manbulloo","Maranboy","Mataranka","Mcarthur","Miniyeri","Miniyerri","Ngukurr","Nitjpurru","Nitmiluk","Numbulwar","Nutwood Downs","Pellew Islands","Pigeon Hole","Robinson River","Sturt Plateau","Tanami East","Timber Creek","Top Springs","Uralla","Venn","Victoria River","Victoria River Downs","Warumungu","Wave Hill","Wilton","Wugularr","Yarralin"],"lga":"","electorate":"Lingiari","type":"Delivery Area","remoteness":"","lat":-16.4713,"lng":134.287,"localityCount":59},{"code":"0853","country":"au","state":"NT","stateFull":"Northern Territory","locality":"Tindal","localities":["Tindal","Tindal Raaf"],"lga":"Katherine","electorate":"Lingiari","type":"Delivery Area","remoteness":"","lat":-14.5473,"lng":132.374,"localityCount":2},{"code":"0854","country":"au","state":"NT","stateFull":"Northern Territory","locality":"Borroloola","localities":["Borroloola","King Ash Bay"],"lga":"Roper Gulf","electorate":"Lingiari","type":"Delivery Area","remoteness":"","lat":-16.0684461,"lng":136.3097128,"localityCount":2},{"code":"0860","country":"au","state":"NT","stateFull":"Northern Territory","locality":"Tennant Creek","localities":["Tennant Creek"],"lga":"Barkly","electorate":"Lingiari","type":"Delivery Area","remoteness":"","lat":-19.6573896,"lng":134.1815176,"localityCount":1},{"code":"0861","country":"au","state":"NT","stateFull":"Northern Territory","locality":"Brunchilly","localities":["Brunchilly","Tennant Creek"],"lga":"Barkly","electorate":"Durack","type":"Delivery Area","remoteness":"","lat":-18.874571,"lng":134.500504,"localityCount":2},{"code":"0862","country":"au","state":"NT","stateFull":"Northern Territory","locality":"Avon Downs","localities":["Avon Downs","Calvert","Cresswell Downs","Elliott","Helen Springs","Muckaty Station","Newcastle Waters","Nicholson","Pamayu","Phillip Creek Station","Renner Springs","Tablelands","Tennant Creek","Three Ways","Warrego","Wollogorang Station","Wycliffe Well"],"lga":"Roper Gulf","electorate":"Lingiari","type":"Delivery Area","remoteness":"","lat":-20.0303016,"lng":137.4905275,"localityCount":17},{"code":"0870","country":"au","state":"NT","stateFull":"Northern Territory","locality":"Alice Springs","localities":["Alice Springs","Araluen","Braitling","Ciccone","Desert Springs","East Side","Gillen","Sadadeen","Stuart","The Gap","White Gums"],"lga":"Alice Springs","electorate":"Lingiari","type":"Delivery Area","remoteness":"","lat":-23.698042,"lng":133.8807471,"localityCount":11},{"code":"0871","country":"au","state":"NT","stateFull":"Northern Territory","locality":"Alice Springs","localities":["Alice Springs"],"lga":"Alice Springs","electorate":"Lingiari","type":"Delivery Area","remoteness":"","lat":-23.698042,"lng":133.8807471,"localityCount":1},{"code":"0872","country":"au","state":"NT","stateFull":"Northern Territory","locality":"Aherrenge","localities":["Aherrenge","Ali Curung","Alice Springs","Amata","Amoonguna","Ampilatwatja","Anangu Pitjantjatjara Yankunytjatjara","Anatye","Anmatjere","Antewenegerrde","Areyonga","Atitjere","Ayers Range South","Ayers Rock","Barrow Creek","Burt Plain","Canteen Creek","Chilla Well","Costello","Davenport","De Rose Hill","Docker River","Engawala","Erldunda","Ernabella","Ernabella (Pukatja)","Finke","Fregon","Ghan","Gibson Desert North","Gibson Desert South","Haasts Bluff","Hale","Hart","Hart Range","Hermannsburg","Hugh","Imampa","Imanpa","Indulkana","Indulkana (Iwantja)","Ininti Store","Irrunytju","Iwantja","Jay Creek","Kalka","Kaltjiti","Kaltukatjara","Kanpa","Kanpi","Kings Creek Station","Kintore","Kiwirrkurra","Kulgera","Kunparrka","Lake Mackay","Lambina","Laramba","Macdonnell Range","Mantamaru","Mereenie","Mimili","Mount Liebig","Mount Zeil","Mulga Bore","Murputja","Murputja Homelands","Mutitjulu","Namatjira","Napperby Station","Ngaanyatjarra-Giles","Nyapari","Nyirripi","Papulankutja","Papunya","Patjarr","Petermann","Pipalyatjara","Pitjantjatjara Homelands","Pukatja","Sandover","Santa Teresa","Simpson","Tanami","Tara","Telegraph Station","Thangkenharenge","Ti Tree","Tieyon","Titjikala","Tjirrkarli","Tjukurla","Uluru","Umpangara","Umuwa","Urapuntja","Wallace Rockhole","Wanarn","Warakurna","Watarru","Watinuma","Willowra","Wilora","Wingellina","Wutunugurra","Yuelamu","Yuendumu","Yulara","Yunyarinyi"],"lga":"Laverton","electorate":"Lingiari","type":"Delivery Area","remoteness":"","lat":-21.6721,"lng":135.232,"localityCount":109},{"code":"0873","country":"au","state":"NT","stateFull":"Northern Territory","locality":"Amoonguna","localities":["Amoonguna","Arumbera","Connellan","Heavitree Gap Cpa","Ilparpa","Kilgariff","Ross"],"lga":"MacDonnell","electorate":"Lingiari","type":"Delivery Area","remoteness":"","lat":-23.7638,"lng":133.929,"localityCount":7},{"code":"0874","country":"au","state":"NT","stateFull":"Northern Territory","locality":"Irlpme","localities":["Irlpme","Mount Johns","Undoolya"],"lga":"Alice Springs","electorate":"Lingiari","type":"Delivery Area","remoteness":"","lat":-23.6407,"lng":133.866,"localityCount":3},{"code":"0875","country":"au","state":"NT","stateFull":"Northern Territory","locality":"Flynn","localities":["Flynn","Larapinta"],"lga":"Alice Springs","electorate":"Lingiari","type":"Delivery Area","remoteness":"","lat":-23.7208,"lng":133.865,"localityCount":2},{"code":"0880","country":"au","state":"NT","stateFull":"Northern Territory","locality":"Gapuwiyak","localities":["Gapuwiyak","Gove","Gunyangara","Nhulunbuy","Yirrkala"],"lga":"East Arnhem","electorate":"Lingiari","type":"Delivery Area","remoteness":"","lat":-12.5032,"lng":135.806,"localityCount":5},{"code":"0881","country":"au","state":"NT","stateFull":"Northern Territory","locality":"Nhulunbuy","localities":["Nhulunbuy"],"lga":"East Arnhem","electorate":"Durack","type":"Delivery Area","remoteness":"","lat":-12.1825,"lng":136.781944,"localityCount":1},{"code":"0885","country":"au","state":"NT","stateFull":"Northern Territory","locality":"Alyangula","localities":["Alyangula"],"lga":"East Arnhem","electorate":"Lingiari","type":"Delivery Area","remoteness":"","lat":-13.8529,"lng":136.422,"localityCount":1},{"code":"0886","country":"au","state":"NT","stateFull":"Northern Territory","locality":"Jabiru","localities":["Jabiru"],"lga":"West Arnhem","electorate":"Lingiari","type":"Delivery Area","remoteness":"","lat":-12.6688351,"lng":132.8345405,"localityCount":1},{"code":"0906","country":"au","state":"NT","stateFull":"Northern Territory","locality":"Winnellie","localities":["Winnellie"],"lga":"East Arnhem","electorate":"Durack","type":"Delivery Area","remoteness":"","lat":-12.428889,"lng":130.869722,"localityCount":1},{"code":"0907","country":"au","state":"NT","stateFull":"Northern Territory","locality":"Winnellie","localities":["Winnellie"],"lga":"East Arnhem","electorate":"Durack","type":"Delivery Area","remoteness":"","lat":-12.428889,"lng":130.869722,"localityCount":1},{"code":"0909","country":"au","state":"NT","stateFull":"Northern Territory","locality":"Charles Darwin University","localities":["Charles Darwin University","University"],"lga":"Darwin","electorate":"Durack","type":"Delivery Area","remoteness":"","lat":-12.3718,"lng":130.869,"localityCount":2},{"code":"1001","country":"au","state":"NSW","stateFull":"New South Wales","locality":"Sydney","localities":["Sydney"],"lga":"Sydney","electorate":"Sydney","type":"LVR","remoteness":"","lat":-33.8688197,"lng":151.2092955,"localityCount":1},{"code":"1002","country":"au","state":"NSW","stateFull":"New South Wales","locality":"Sydney","localities":["Sydney"],"lga":"Sydney","electorate":"Sydney","type":"LVR","remoteness":"","lat":-33.8688197,"lng":151.2092955,"localityCount":1},{"code":"1003","country":"au","state":"NSW","stateFull":"New South Wales","locality":"Sydney","localities":["Sydney"],"lga":"Sydney","electorate":"Sydney","type":"LVR","remoteness":"","lat":-33.8688197,"lng":151.2092955,"localityCount":1},{"code":"1004","country":"au","state":"NSW","stateFull":"New South Wales","locality":"Sydney","localities":["Sydney"],"lga":"Sydney","electorate":"Sydney","type":"LVR","remoteness":"","lat":-33.8688197,"lng":151.2092955,"localityCount":1},{"code":"1005","country":"au","state":"NSW","stateFull":"New South Wales","locality":"Sydney","localities":["Sydney"],"lga":"Sydney","electorate":"Sydney","type":"LVR","remoteness":"","lat":-33.8688197,"lng":151.2092955,"localityCount":1},{"code":"1006","country":"au","state":"NSW","stateFull":"New South Wales","locality":"Sydney","localities":["Sydney"],"lga":"Sydney","electorate":"Sydney","type":"LVR","remoteness":"","lat":-33.8688197,"lng":151.2092955,"localityCount":1},{"code":"1007","country":"au","state":"NSW","stateFull":"New South Wales","locality":"Sydney","localities":["Sydney"],"lga":"Sydney","electorate":"Sydney","type":"LVR","remoteness":"","lat":-33.8688197,"lng":151.2092955,"localityCount":1},{"code":"1008","country":"au","state":"NSW","stateFull":"New South Wales","locality":"Sydney","localities":["Sydney"],"lga":"Sydney","electorate":"Sydney","type":"LVR","remoteness":"","lat":-33.8688197,"lng":151.2092955,"localityCount":1},{"code":"1009","country":"au","state":"NSW","stateFull":"New South Wales","locality":"Sydney","localities":["Sydney"],"lga":"Sydney","electorate":"Sydney","type":"LVR","remoteness":"","lat":-33.8688197,"lng":151.2092955,"localityCount":1},{"code":"1010","country":"au","state":"NSW","stateFull":"New South Wales","locality":"Sydney","localities":["Sydney"],"lga":"Sydney","electorate":"Sydney","type":"LVR","remoteness":"","lat":-33.8688197,"lng":151.2092955,"localityCount":1},{"code":"1020","country":"au","state":"NSW","stateFull":"New South Wales","locality":"Sydney","localities":["Sydney"],"lga":"Sydney","electorate":"Sydney","type":"LVR","remoteness":"","lat":-33.8688197,"lng":151.2092955,"localityCount":1},{"code":"1021","country":"au","state":"NSW","stateFull":"New South Wales","locality":"Sydney","localities":["Sydney"],"lga":"Sydney","electorate":"Sydney","type":"LVR","remoteness":"","lat":-33.8688197,"lng":151.2092955,"localityCount":1},{"code":"1022","country":"au","state":"NSW","stateFull":"New South Wales","locality":"Sydney","localities":["Sydney"],"lga":"Sydney","electorate":"Sydney","type":"LVR","remoteness":"","lat":-33.8688197,"lng":151.2092955,"localityCount":1},{"code":"1023","country":"au","state":"NSW","stateFull":"New South Wales","locality":"Sydney","localities":["Sydney"],"lga":"Sydney","electorate":"Sydney","type":"LVR","remoteness":"","lat":-33.8688197,"lng":151.2092955,"localityCount":1},{"code":"1025","country":"au","state":"NSW","stateFull":"New South Wales","locality":"Sydney","localities":["Sydney"],"lga":"Sydney","electorate":"Sydney","type":"LVR","remoteness":"","lat":-33.8688197,"lng":151.2092955,"localityCount":1},{"code":"1026","country":"au","state":"NSW","stateFull":"New South Wales","locality":"Sydney","localities":["Sydney"],"lga":"Sydney","electorate":"Sydney","type":"LVR","remoteness":"","lat":-33.8688197,"lng":151.2092955,"localityCount":1},{"code":"1027","country":"au","state":"NSW","stateFull":"New South Wales","locality":"Sydney","localities":["Sydney"],"lga":"Sydney","electorate":"Sydney","type":"LVR","remoteness":"","lat":-33.8688197,"lng":151.2092955,"localityCount":1},{"code":"1028","country":"au","state":"NSW","stateFull":"New South Wales","locality":"Sydney","localities":["Sydney"],"lga":"Sydney","electorate":"Sydney","type":"LVR","remoteness":"","lat":-33.8688197,"lng":151.2092955,"localityCount":1},{"code":"1029","country":"au","state":"NSW","stateFull":"New South Wales","locality":"Sydney","localities":["Sydney"],"lga":"Sydney","electorate":"Sydney","type":"LVR","remoteness":"","lat":-33.8688197,"lng":151.2092955,"localityCount":1},{"code":"1030","country":"au","state":"NSW","stateFull":"New South Wales","locality":"Sydney","localities":["Sydney"],"lga":"Sydney","electorate":"Sydney","type":"LVR","remoteness":"","lat":-33.8688197,"lng":151.2092955,"localityCount":1},{"code":"1031","country":"au","state":"NSW","stateFull":"New South Wales","locality":"Sydney","localities":["Sydney"],"lga":"Sydney","electorate":"Sydney","type":"LVR","remoteness":"","lat":-33.8688197,"lng":151.2092955,"localityCount":1},{"code":"1032","country":"au","state":"NSW","stateFull":"New South Wales","locality":"Sydney","localities":["Sydney"],"lga":"Sydney","electorate":"Sydney","type":"LVR","remoteness":"","lat":-33.8688197,"lng":151.2092955,"localityCount":1},{"code":"1033","country":"au","state":"NSW","stateFull":"New South Wales","locality":"Sydney","localities":["Sydney"],"lga":"Sydney","electorate":"Sydney","type":"LVR","remoteness":"","lat":-33.8688197,"lng":151.2092955,"localityCount":1},{"code":"1034","country":"au","state":"NSW","stateFull":"New South Wales","locality":"Sydney","localities":["Sydney"],"lga":"Sydney","electorate":"Sydney","type":"LVR","remoteness":"","lat":-33.8688197,"lng":151.2092955,"localityCount":1},{"code":"1035","country":"au","state":"NSW","stateFull":"New South Wales","locality":"Sydney","localities":["Sydney"],"lga":"Sydney","electorate":"Sydney","type":"LVR","remoteness":"","lat":-33.8688197,"lng":151.2092955,"localityCount":1},{"code":"1036","country":"au","state":"NSW","stateFull":"New South Wales","locality":"Sydney","localities":["Sydney"],"lga":"Sydney","electorate":"Sydney","type":"LVR","remoteness":"","lat":-33.8688197,"lng":151.2092955,"localityCount":1},{"code":"1037","country":"au","state":"NSW","stateFull":"New South Wales","locality":"Sydney","localities":["Sydney"],"lga":"Sydney","electorate":"Sydney","type":"LVR","remoteness":"","lat":-33.8688197,"lng":151.2092955,"localityCount":1},{"code":"1038","country":"au","state":"NSW","stateFull":"New South Wales","locality":"Sydney","localities":["Sydney"],"lga":"Sydney","electorate":"Sydney","type":"LVR","remoteness":"","lat":-33.8688197,"lng":151.2092955,"localityCount":1},{"code":"1039","country":"au","state":"NSW","stateFull":"New South Wales","locality":"Sydney","localities":["Sydney"],"lga":"Sydney","electorate":"Sydney","type":"LVR","remoteness":"","lat":-33.8688197,"lng":151.2092955,"localityCount":1},{"code":"1040","country":"au","state":"NSW","stateFull":"New South Wales","locality":"Sydney","localities":["Sydney"],"lga":"Sydney","electorate":"Sydney","type":"LVR","remoteness":"","lat":-33.8688197,"lng":151.2092955,"localityCount":1},{"code":"1041","country":"au","state":"NSW","stateFull":"New South Wales","locality":"Sydney","localities":["Sydney"],"lga":"Sydney","electorate":"Sydney","type":"LVR","remoteness":"","lat":-33.8688197,"lng":151.2092955,"localityCount":1},{"code":"1042","country":"au","state":"NSW","stateFull":"New South Wales","locality":"Sydney","localities":["Sydney"],"lga":"Sydney","electorate":"Sydney","type":"LVR","remoteness":"","lat":-33.8688197,"lng":151.2092955,"localityCount":1},{"code":"1043","country":"au","state":"NSW","stateFull":"New South Wales","locality":"Sydney","localities":["Sydney"],"lga":"Sydney","electorate":"Sydney","type":"LVR","remoteness":"","lat":-33.8688197,"lng":151.2092955,"localityCount":1},{"code":"1044","country":"au","state":"NSW","stateFull":"New South Wales","locality":"Sydney","localities":["Sydney"],"lga":"Sydney","electorate":"Sydney","type":"LVR","remoteness":"","lat":-33.8688197,"lng":151.2092955,"localityCount":1},{"code":"1045","country":"au","state":"NSW","stateFull":"New South Wales","locality":"Sydney","localities":["Sydney"],"lga":"Sydney","electorate":"Sydney","type":"LVR","remoteness":"","lat":-33.8688197,"lng":151.2092955,"localityCount":1},{"code":"1046","country":"au","state":"NSW","stateFull":"New South Wales","locality":"Sydney","localities":["Sydney"],"lga":"Sydney","electorate":"Sydney","type":"LVR","remoteness":"","lat":-33.8688197,"lng":151.2092955,"localityCount":1},{"code":"1100","country":"au","state":"NSW","stateFull":"New South Wales","locality":"Sydney","localities":["Sydney"],"lga":"Sydney","electorate":"Sydney","type":"LVR","remoteness":"","lat":-33.8688197,"lng":151.2092955,"localityCount":1},{"code":"1101","country":"au","state":"NSW","stateFull":"New South Wales","locality":"Sydney","localities":["Sydney"],"lga":"Sydney","electorate":"Sydney","type":"LVR","remoteness":"","lat":-33.8688197,"lng":151.2092955,"localityCount":1},{"code":"1105","country":"au","state":"NSW","stateFull":"New South Wales","locality":"Sydney","localities":["Sydney"],"lga":"Sydney","electorate":"Sydney","type":"LVR","remoteness":"","lat":-33.8688197,"lng":151.2092955,"localityCount":1},{"code":"1106","country":"au","state":"NSW","stateFull":"New South Wales","locality":"Sydney","localities":["Sydney"],"lga":"Sydney","electorate":"Sydney","type":"LVR","remoteness":"","lat":-33.8688197,"lng":151.2092955,"localityCount":1},{"code":"1107","country":"au","state":"NSW","stateFull":"New South Wales","locality":"Sydney","localities":["Sydney"],"lga":"Sydney","electorate":"Sydney","type":"LVR","remoteness":"","lat":-33.8688197,"lng":151.2092955,"localityCount":1},{"code":"1108","country":"au","state":"NSW","stateFull":"New South Wales","locality":"Sydney","localities":["Sydney"],"lga":"Sydney","electorate":"Sydney","type":"LVR","remoteness":"","lat":-33.8688197,"lng":151.2092955,"localityCount":1},{"code":"1109","country":"au","state":"NSW","stateFull":"New South Wales","locality":"Sydney","localities":["Sydney"],"lga":"Sydney","electorate":"Sydney","type":"LVR","remoteness":"","lat":-33.8688197,"lng":151.2092955,"localityCount":1},{"code":"1110","country":"au","state":"NSW","stateFull":"New South Wales","locality":"Sydney","localities":["Sydney"],"lga":"Sydney","electorate":"Sydney","type":"LVR","remoteness":"","lat":-33.8688197,"lng":151.2092955,"localityCount":1},{"code":"1112","country":"au","state":"NSW","stateFull":"New South Wales","locality":"Sydney","localities":["Sydney"],"lga":"Sydney","electorate":"Sydney","type":"LVR","remoteness":"","lat":-33.8688197,"lng":151.2092955,"localityCount":1},{"code":"1113","country":"au","state":"NSW","stateFull":"New South Wales","locality":"Sydney","localities":["Sydney"],"lga":"Sydney","electorate":"Sydney","type":"LVR","remoteness":"","lat":-33.8688197,"lng":151.2092955,"localityCount":1},{"code":"1114","country":"au","state":"NSW","stateFull":"New South Wales","locality":"Sydney","localities":["Sydney"],"lga":"Sydney","electorate":"Sydney","type":"LVR","remoteness":"","lat":-33.8688197,"lng":151.2092955,"localityCount":1},{"code":"1115","country":"au","state":"NSW","stateFull":"New South Wales","locality":"Sydney","localities":["Sydney"],"lga":"Sydney","electorate":"Sydney","type":"LVR","remoteness":"","lat":-33.8688197,"lng":151.2092955,"localityCount":1},{"code":"1116","country":"au","state":"NSW","stateFull":"New South Wales","locality":"Sydney","localities":["Sydney"],"lga":"Sydney","electorate":"Sydney","type":"LVR","remoteness":"","lat":-33.8688197,"lng":151.2092955,"localityCount":1},{"code":"1117","country":"au","state":"NSW","stateFull":"New South Wales","locality":"Sydney","localities":["Sydney"],"lga":"Sydney","electorate":"Sydney","type":"LVR","remoteness":"","lat":-33.8688197,"lng":151.2092955,"localityCount":1},{"code":"1118","country":"au","state":"NSW","stateFull":"New South Wales","locality":"Sydney","localities":["Sydney"],"lga":"Sydney","electorate":"Sydney","type":"LVR","remoteness":"","lat":-33.8688197,"lng":151.2092955,"localityCount":1},{"code":"1119","country":"au","state":"NSW","stateFull":"New South Wales","locality":"Sydney","localities":["Sydney"],"lga":"Sydney","electorate":"Sydney","type":"LVR","remoteness":"","lat":-33.8688197,"lng":151.2092955,"localityCount":1},{"code":"1120","country":"au","state":"NSW","stateFull":"New South Wales","locality":"Sydney","localities":["Sydney"],"lga":"Sydney","electorate":"Sydney","type":"LVR","remoteness":"","lat":-33.8688197,"lng":151.2092955,"localityCount":1},{"code":"1121","country":"au","state":"NSW","stateFull":"New South Wales","locality":"Sydney","localities":["Sydney"],"lga":"Sydney","electorate":"Sydney","type":"LVR","remoteness":"","lat":-33.8688197,"lng":151.2092955,"localityCount":1},{"code":"1122","country":"au","state":"NSW","stateFull":"New South Wales","locality":"Sydney","localities":["Sydney"],"lga":"Sydney","electorate":"Sydney","type":"LVR","remoteness":"","lat":-33.8688197,"lng":151.2092955,"localityCount":1},{"code":"1123","country":"au","state":"NSW","stateFull":"New South Wales","locality":"Sydney","localities":["Sydney"],"lga":"Sydney","electorate":"Sydney","type":"LVR","remoteness":"","lat":-33.8688197,"lng":151.2092955,"localityCount":1},{"code":"1124","country":"au","state":"NSW","stateFull":"New South Wales","locality":"Sydney","localities":["Sydney"],"lga":"Sydney","electorate":"Sydney","type":"LVR","remoteness":"","lat":-33.8688197,"lng":151.2092955,"localityCount":1},{"code":"1125","country":"au","state":"NSW","stateFull":"New South Wales","locality":"Sydney","localities":["Sydney"],"lga":"Sydney","electorate":"Sydney","type":"LVR","remoteness":"","lat":-33.8688197,"lng":151.2092955,"localityCount":1},{"code":"1126","country":"au","state":"NSW","stateFull":"New South Wales","locality":"Sydney","localities":["Sydney"],"lga":"Sydney","electorate":"Sydney","type":"LVR","remoteness":"","lat":-33.8688197,"lng":151.2092955,"localityCount":1},{"code":"1127","country":"au","state":"NSW","stateFull":"New South Wales","locality":"Sydney","localities":["Sydney"],"lga":"Sydney","electorate":"Sydney","type":"LVR","remoteness":"","lat":-33.8688197,"lng":151.2092955,"localityCount":1},{"code":"1128","country":"au","state":"NSW","stateFull":"New South Wales","locality":"Sydney","localities":["Sydney"],"lga":"Sydney","electorate":"Sydney","type":"LVR","remoteness":"","lat":-33.8688197,"lng":151.2092955,"localityCount":1},{"code":"1129","country":"au","state":"NSW","stateFull":"New South Wales","locality":"Sydney","localities":["Sydney"],"lga":"Sydney","electorate":"Sydney","type":"LVR","remoteness":"","lat":-33.8688197,"lng":151.2092955,"localityCount":1},{"code":"1130","country":"au","state":"NSW","stateFull":"New South Wales","locality":"Sydney","localities":["Sydney"],"lga":"Sydney","electorate":"Sydney","type":"LVR","remoteness":"","lat":-33.8688197,"lng":151.2092955,"localityCount":1},{"code":"1131","country":"au","state":"NSW","stateFull":"New South Wales","locality":"Sydney","localities":["Sydney"],"lga":"Sydney","electorate":"Sydney","type":"LVR","remoteness":"","lat":-33.8688197,"lng":151.2092955,"localityCount":1},{"code":"1132","country":"au","state":"NSW","stateFull":"New South Wales","locality":"Sydney","localities":["Sydney"],"lga":"Sydney","electorate":"Sydney","type":"LVR","remoteness":"","lat":-33.8688197,"lng":151.2092955,"localityCount":1},{"code":"1133","country":"au","state":"NSW","stateFull":"New South Wales","locality":"Sydney","localities":["Sydney"],"lga":"Sydney","electorate":"Sydney","type":"LVR","remoteness":"","lat":-33.8688197,"lng":151.2092955,"localityCount":1},{"code":"1134","country":"au","state":"NSW","stateFull":"New South Wales","locality":"Sydney","localities":["Sydney"],"lga":"Sydney","electorate":"Sydney","type":"LVR","remoteness":"","lat":-33.8688197,"lng":151.2092955,"localityCount":1},{"code":"1135","country":"au","state":"NSW","stateFull":"New South Wales","locality":"Sydney","localities":["Sydney"],"lga":"Sydney","electorate":"Sydney","type":"LVR","remoteness":"","lat":-33.8688197,"lng":151.2092955,"localityCount":1},{"code":"1136","country":"au","state":"NSW","stateFull":"New South Wales","locality":"Sydney","localities":["Sydney"],"lga":"Sydney","electorate":"Sydney","type":"LVR","remoteness":"","lat":-33.8688197,"lng":151.2092955,"localityCount":1},{"code":"1137","country":"au","state":"NSW","stateFull":"New South Wales","locality":"Sydney","localities":["Sydney"],"lga":"Sydney","electorate":"Sydney","type":"LVR","remoteness":"","lat":-33.8688197,"lng":151.2092955,"localityCount":1},{"code":"1138","country":"au","state":"NSW","stateFull":"New South Wales","locality":"Sydney","localities":["Sydney"],"lga":"Sydney","electorate":"Sydney","type":"LVR","remoteness":"","lat":-33.8688197,"lng":151.2092955,"localityCount":1},{"code":"1139","country":"au","state":"NSW","stateFull":"New South Wales","locality":"Sydney","localities":["Sydney"],"lga":"Sydney","electorate":"Sydney","type":"LVR","remoteness":"","lat":-33.8688197,"lng":151.2092955,"localityCount":1},{"code":"1140","country":"au","state":"NSW","stateFull":"New South Wales","locality":"Sydney","localities":["Sydney"],"lga":"Sydney","electorate":"Sydney","type":"LVR","remoteness":"","lat":-33.8688197,"lng":151.2092955,"localityCount":1},{"code":"1141","country":"au","state":"NSW","stateFull":"New South Wales","locality":"Sydney","localities":["Sydney"],"lga":"Sydney","electorate":"Sydney","type":"LVR","remoteness":"","lat":-33.8688197,"lng":151.2092955,"localityCount":1},{"code":"1142","country":"au","state":"NSW","stateFull":"New South Wales","locality":"Sydney","localities":["Sydney"],"lga":"Sydney","electorate":"Sydney","type":"LVR","remoteness":"","lat":-33.8688197,"lng":151.2092955,"localityCount":1},{"code":"1143","country":"au","state":"NSW","stateFull":"New South Wales","locality":"Sydney","localities":["Sydney"],"lga":"Sydney","electorate":"Sydney","type":"LVR","remoteness":"","lat":-33.8688197,"lng":151.2092955,"localityCount":1},{"code":"1144","country":"au","state":"NSW","stateFull":"New South Wales","locality":"Sydney","localities":["Sydney"],"lga":"Sydney","electorate":"Sydney","type":"LVR","remoteness":"","lat":-33.8688197,"lng":151.2092955,"localityCount":1},{"code":"1145","country":"au","state":"NSW","stateFull":"New South Wales","locality":"Sydney","localities":["Sydney"],"lga":"Sydney","electorate":"Sydney","type":"LVR","remoteness":"","lat":-33.8688197,"lng":151.2092955,"localityCount":1},{"code":"1146","country":"au","state":"NSW","stateFull":"New South Wales","locality":"Sydney","localities":["Sydney"],"lga":"Sydney","electorate":"Sydney","type":"LVR","remoteness":"","lat":-33.8688197,"lng":151.2092955,"localityCount":1},{"code":"1147","country":"au","state":"NSW","stateFull":"New South Wales","locality":"Sydney","localities":["Sydney"],"lga":"Sydney","electorate":"Sydney","type":"LVR","remoteness":"","lat":-33.8688197,"lng":151.2092955,"localityCount":1},{"code":"1148","country":"au","state":"NSW","stateFull":"New South Wales","locality":"Sydney","localities":["Sydney"],"lga":"Sydney","electorate":"Sydney","type":"LVR","remoteness":"","lat":-33.8688197,"lng":151.2092955,"localityCount":1},{"code":"1149","country":"au","state":"NSW","stateFull":"New South Wales","locality":"Sydney","localities":["Sydney"],"lga":"Sydney","electorate":"Sydney","type":"LVR","remoteness":"","lat":-33.8688197,"lng":151.2092955,"localityCount":1},{"code":"1150","country":"au","state":"NSW","stateFull":"New South Wales","locality":"Sydney","localities":["Sydney"],"lga":"Sydney","electorate":"Sydney","type":"LVR","remoteness":"","lat":-33.8688197,"lng":151.2092955,"localityCount":1},{"code":"1151","country":"au","state":"NSW","stateFull":"New South Wales","locality":"Sydney","localities":["Sydney"],"lga":"Sydney","electorate":"Sydney","type":"LVR","remoteness":"","lat":-33.8688197,"lng":151.2092955,"localityCount":1},{"code":"1152","country":"au","state":"NSW","stateFull":"New South Wales","locality":"Sydney","localities":["Sydney"],"lga":"Sydney","electorate":"Sydney","type":"LVR","remoteness":"","lat":-33.8688197,"lng":151.2092955,"localityCount":1},{"code":"1153","country":"au","state":"NSW","stateFull":"New South Wales","locality":"Sydney","localities":["Sydney"],"lga":"Sydney","electorate":"Sydney","type":"LVR","remoteness":"","lat":-33.8688197,"lng":151.2092955,"localityCount":1},{"code":"1154","country":"au","state":"NSW","stateFull":"New South Wales","locality":"Sydney","localities":["Sydney"],"lga":"Sydney","electorate":"Sydney","type":"LVR","remoteness":"","lat":-33.8688197,"lng":151.2092955,"localityCount":1},{"code":"1155","country":"au","state":"NSW","stateFull":"New South Wales","locality":"Sydney","localities":["Sydney"],"lga":"Sydney","electorate":"Sydney","type":"LVR","remoteness":"","lat":-33.8688197,"lng":151.2092955,"localityCount":1},{"code":"1156","country":"au","state":"NSW","stateFull":"New South Wales","locality":"Sydney","localities":["Sydney"],"lga":"Sydney","electorate":"Sydney","type":"LVR","remoteness":"","lat":-33.8688197,"lng":151.2092955,"localityCount":1},{"code":"1157","country":"au","state":"NSW","stateFull":"New South Wales","locality":"Sydney","localities":["Sydney"],"lga":"Sydney","electorate":"Sydney","type":"LVR","remoteness":"","lat":-33.8688197,"lng":151.2092955,"localityCount":1},{"code":"1158","country":"au","state":"NSW","stateFull":"New South Wales","locality":"Sydney","localities":["Sydney"],"lga":"Sydney","electorate":"Sydney","type":"LVR","remoteness":"","lat":-33.8688197,"lng":151.2092955,"localityCount":1},{"code":"1159","country":"au","state":"NSW","stateFull":"New South Wales","locality":"Sydney","localities":["Sydney"],"lga":"Sydney","electorate":"Sydney","type":"LVR","remoteness":"","lat":-33.8688197,"lng":151.2092955,"localityCount":1},{"code":"1160","country":"au","state":"NSW","stateFull":"New South Wales","locality":"Sydney","localities":["Sydney"],"lga":"Sydney","electorate":"Sydney","type":"LVR","remoteness":"","lat":-33.8688197,"lng":151.2092955,"localityCount":1},{"code":"1161","country":"au","state":"NSW","stateFull":"New South Wales","locality":"Sydney","localities":["Sydney"],"lga":"Sydney","electorate":"Sydney","type":"LVR","remoteness":"","lat":-33.8688197,"lng":151.2092955,"localityCount":1},{"code":"1162","country":"au","state":"NSW","stateFull":"New South Wales","locality":"Sydney","localities":["Sydney"],"lga":"Sydney","electorate":"Sydney","type":"LVR","remoteness":"","lat":-33.8688197,"lng":151.2092955,"localityCount":1},{"code":"1163","country":"au","state":"NSW","stateFull":"New South Wales","locality":"Sydney","localities":["Sydney"],"lga":"Sydney","electorate":"Sydney","type":"LVR","remoteness":"","lat":-33.8688197,"lng":151.2092955,"localityCount":1},{"code":"1164","country":"au","state":"NSW","stateFull":"New South Wales","locality":"Sydney","localities":["Sydney"],"lga":"Sydney","electorate":"Sydney","type":"LVR","remoteness":"","lat":-33.8688197,"lng":151.2092955,"localityCount":1},{"code":"1165","country":"au","state":"NSW","stateFull":"New South Wales","locality":"Sydney","localities":["Sydney"],"lga":"Sydney","electorate":"Sydney","type":"LVR","remoteness":"","lat":-33.8688197,"lng":151.2092955,"localityCount":1},{"code":"1166","country":"au","state":"NSW","stateFull":"New South Wales","locality":"Sydney","localities":["Sydney"],"lga":"Sydney","electorate":"Sydney","type":"LVR","remoteness":"","lat":-33.8688197,"lng":151.2092955,"localityCount":1},{"code":"1167","country":"au","state":"NSW","stateFull":"New South Wales","locality":"Sydney","localities":["Sydney"],"lga":"Sydney","electorate":"Sydney","type":"LVR","remoteness":"","lat":-33.8688197,"lng":151.2092955,"localityCount":1},{"code":"1168","country":"au","state":"NSW","stateFull":"New South Wales","locality":"Sydney","localities":["Sydney"],"lga":"Sydney","electorate":"Sydney","type":"LVR","remoteness":"","lat":-33.8688197,"lng":151.2092955,"localityCount":1},{"code":"1169","country":"au","state":"NSW","stateFull":"New South Wales","locality":"Sydney","localities":["Sydney"],"lga":"Sydney","electorate":"Sydney","type":"LVR","remoteness":"","lat":-33.8688197,"lng":151.2092955,"localityCount":1},{"code":"1170","country":"au","state":"NSW","stateFull":"New South Wales","locality":"Sydney","localities":["Sydney"],"lga":"Sydney","electorate":"Sydney","type":"LVR","remoteness":"","lat":-33.8688197,"lng":151.2092955,"localityCount":1},{"code":"1171","country":"au","state":"NSW","stateFull":"New South Wales","locality":"Sydney","localities":["Sydney"],"lga":"Sydney","electorate":"Sydney","type":"LVR","remoteness":"","lat":-33.8688197,"lng":151.2092955,"localityCount":1},{"code":"1172","country":"au","state":"NSW","stateFull":"New South Wales","locality":"Sydney","localities":["Sydney"],"lga":"Sydney","electorate":"Sydney","type":"LVR","remoteness":"","lat":-33.8688197,"lng":151.2092955,"localityCount":1},{"code":"1173","country":"au","state":"NSW","stateFull":"New South Wales","locality":"Sydney","localities":["Sydney"],"lga":"Sydney","electorate":"Sydney","type":"LVR","remoteness":"","lat":-33.8688197,"lng":151.2092955,"localityCount":1},{"code":"1174","country":"au","state":"NSW","stateFull":"New South Wales","locality":"Sydney","localities":["Sydney"],"lga":"Sydney","electorate":"Sydney","type":"LVR","remoteness":"","lat":-33.8688197,"lng":151.2092955,"localityCount":1},{"code":"1175","country":"au","state":"NSW","stateFull":"New South Wales","locality":"Sydney","localities":["Sydney"],"lga":"Sydney","electorate":"Sydney","type":"LVR","remoteness":"","lat":-33.8688197,"lng":151.2092955,"localityCount":1},{"code":"1176","country":"au","state":"NSW","stateFull":"New South Wales","locality":"Sydney","localities":["Sydney"],"lga":"Sydney","electorate":"Sydney","type":"LVR","remoteness":"","lat":-33.8688197,"lng":151.2092955,"localityCount":1},{"code":"1177","country":"au","state":"NSW","stateFull":"New South Wales","locality":"Sydney","localities":["Sydney"],"lga":"Sydney","electorate":"Sydney","type":"LVR","remoteness":"","lat":-33.8688197,"lng":151.2092955,"localityCount":1},{"code":"1178","country":"au","state":"NSW","stateFull":"New South Wales","locality":"Sydney","localities":["Sydney"],"lga":"Sydney","electorate":"Sydney","type":"LVR","remoteness":"","lat":-33.8688197,"lng":151.2092955,"localityCount":1},{"code":"1179","country":"au","state":"NSW","stateFull":"New South Wales","locality":"Sydney","localities":["Sydney"],"lga":"Sydney","electorate":"Sydney","type":"LVR","remoteness":"","lat":-33.8688197,"lng":151.2092955,"localityCount":1},{"code":"1180","country":"au","state":"NSW","stateFull":"New South Wales","locality":"Sydney","localities":["Sydney"],"lga":"Sydney","electorate":"Sydney","type":"LVR","remoteness":"","lat":-33.8688197,"lng":151.2092955,"localityCount":1},{"code":"1181","country":"au","state":"NSW","stateFull":"New South Wales","locality":"Sydney","localities":["Sydney"],"lga":"Sydney","electorate":"Sydney","type":"LVR","remoteness":"","lat":-33.8688197,"lng":151.2092955,"localityCount":1},{"code":"1182","country":"au","state":"NSW","stateFull":"New South Wales","locality":"Sydney","localities":["Sydney"],"lga":"Sydney","electorate":"Sydney","type":"LVR","remoteness":"","lat":-33.8688197,"lng":151.2092955,"localityCount":1},{"code":"1183","country":"au","state":"NSW","stateFull":"New South Wales","locality":"Sydney","localities":["Sydney"],"lga":"Sydney","electorate":"Sydney","type":"LVR","remoteness":"","lat":-33.8688197,"lng":151.2092955,"localityCount":1},{"code":"1184","country":"au","state":"NSW","stateFull":"New South Wales","locality":"Sydney","localities":["Sydney"],"lga":"Sydney","electorate":"Sydney","type":"LVR","remoteness":"","lat":-33.8688197,"lng":151.2092955,"localityCount":1},{"code":"1185","country":"au","state":"NSW","stateFull":"New South Wales","locality":"Sydney","localities":["Sydney"],"lga":"Sydney","electorate":"Sydney","type":"LVR","remoteness":"","lat":-33.8688197,"lng":151.2092955,"localityCount":1},{"code":"1186","country":"au","state":"NSW","stateFull":"New South Wales","locality":"Sydney","localities":["Sydney"],"lga":"Sydney","electorate":"Sydney","type":"LVR","remoteness":"","lat":-33.8688197,"lng":151.2092955,"localityCount":1},{"code":"1187","country":"au","state":"NSW","stateFull":"New South Wales","locality":"Sydney","localities":["Sydney"],"lga":"Sydney","electorate":"Sydney","type":"LVR","remoteness":"","lat":-33.8688197,"lng":151.2092955,"localityCount":1},{"code":"1188","country":"au","state":"NSW","stateFull":"New South Wales","locality":"Sydney","localities":["Sydney"],"lga":"Sydney","electorate":"Sydney","type":"LVR","remoteness":"","lat":-33.8688197,"lng":151.2092955,"localityCount":1},{"code":"1189","country":"au","state":"NSW","stateFull":"New South Wales","locality":"Sydney","localities":["Sydney"],"lga":"Sydney","electorate":"Sydney","type":"LVR","remoteness":"","lat":-33.8688197,"lng":151.2092955,"localityCount":1},{"code":"1190","country":"au","state":"NSW","stateFull":"New South Wales","locality":"Sydney","localities":["Sydney"],"lga":"Sydney","electorate":"Sydney","type":"LVR","remoteness":"","lat":-33.8688197,"lng":151.2092955,"localityCount":1},{"code":"1191","country":"au","state":"NSW","stateFull":"New South Wales","locality":"Sydney","localities":["Sydney"],"lga":"Sydney","electorate":"Sydney","type":"LVR","remoteness":"","lat":-33.8688197,"lng":151.2092955,"localityCount":1},{"code":"1192","country":"au","state":"NSW","stateFull":"New South Wales","locality":"Sydney","localities":["Sydney"],"lga":"Sydney","electorate":"Sydney","type":"LVR","remoteness":"","lat":-33.8688197,"lng":151.2092955,"localityCount":1},{"code":"1193","country":"au","state":"NSW","stateFull":"New South Wales","locality":"Sydney","localities":["Sydney"],"lga":"Sydney","electorate":"Sydney","type":"LVR","remoteness":"","lat":-33.8688197,"lng":151.2092955,"localityCount":1},{"code":"1194","country":"au","state":"NSW","stateFull":"New South Wales","locality":"Sydney","localities":["Sydney"],"lga":"Sydney","electorate":"Sydney","type":"LVR","remoteness":"","lat":-33.8688197,"lng":151.2092955,"localityCount":1},{"code":"1195","country":"au","state":"NSW","stateFull":"New South Wales","locality":"Sydney","localities":["Sydney"],"lga":"Sydney","electorate":"Sydney","type":"LVR","remoteness":"","lat":-33.8688197,"lng":151.2092955,"localityCount":1},{"code":"1196","country":"au","state":"NSW","stateFull":"New South Wales","locality":"Sydney","localities":["Sydney"],"lga":"Sydney","electorate":"Sydney","type":"LVR","remoteness":"","lat":-33.8688197,"lng":151.2092955,"localityCount":1},{"code":"1197","country":"au","state":"NSW","stateFull":"New South Wales","locality":"Sydney","localities":["Sydney"],"lga":"Sydney","electorate":"Sydney","type":"LVR","remoteness":"","lat":-33.8688197,"lng":151.2092955,"localityCount":1},{"code":"1198","country":"au","state":"NSW","stateFull":"New South Wales","locality":"Sydney","localities":["Sydney"],"lga":"Sydney","electorate":"Sydney","type":"LVR","remoteness":"","lat":-33.8688197,"lng":151.2092955,"localityCount":1},{"code":"1199","country":"au","state":"NSW","stateFull":"New South Wales","locality":"Sydney","localities":["Sydney"],"lga":"Sydney","electorate":"Sydney","type":"LVR","remoteness":"","lat":-33.8688197,"lng":151.2092955,"localityCount":1},{"code":"1201","country":"au","state":"NSW","stateFull":"New South Wales","locality":"Sydney","localities":["Sydney"],"lga":"Sydney","electorate":"Sydney","type":"LVR","remoteness":"","lat":-33.8688197,"lng":151.2092955,"localityCount":1},{"code":"1202","country":"au","state":"NSW","stateFull":"New South Wales","locality":"Sydney","localities":["Sydney"],"lga":"Sydney","electorate":"Sydney","type":"LVR","remoteness":"","lat":-33.8688197,"lng":151.2092955,"localityCount":1},{"code":"1203","country":"au","state":"NSW","stateFull":"New South Wales","locality":"Sydney","localities":["Sydney"],"lga":"Sydney","electorate":"Sydney","type":"LVR","remoteness":"","lat":-33.8688197,"lng":151.2092955,"localityCount":1},{"code":"1205","country":"au","state":"NSW","stateFull":"New South Wales","locality":"Sydney","localities":["Sydney"],"lga":"Sydney","electorate":"Sydney","type":"LVR","remoteness":"","lat":-33.8688197,"lng":151.2092955,"localityCount":1},{"code":"1207","country":"au","state":"NSW","stateFull":"New South Wales","locality":"Sydney","localities":["Sydney"],"lga":"Sydney","electorate":"Sydney","type":"LVR","remoteness":"","lat":-33.8688197,"lng":151.2092955,"localityCount":1},{"code":"1208","country":"au","state":"NSW","stateFull":"New South Wales","locality":"Haymarket","localities":["Haymarket"],"lga":"Glen Innes Severn","electorate":"Sydney","type":"LVR","remoteness":"","lat":-33.88092,"lng":151.20294,"localityCount":1},{"code":"1209","country":"au","state":"NSW","stateFull":"New South Wales","locality":"Australia Square","localities":["Australia Square"],"lga":"Inner West","electorate":"Sydney","type":"LVR","remoteness":"","lat":-33.8646583,"lng":151.2077003,"localityCount":1},{"code":"1210","country":"au","state":"NSW","stateFull":"New South Wales","locality":"Australia Square","localities":["Australia Square"],"lga":"Inner West","electorate":"Sydney","type":"LVR","remoteness":"","lat":-33.8646583,"lng":151.2077003,"localityCount":1},{"code":"1211","country":"au","state":"NSW","stateFull":"New South Wales","locality":"Australia Square","localities":["Australia Square"],"lga":"Inner West","electorate":"Sydney","type":"LVR","remoteness":"","lat":-33.8646583,"lng":151.2077003,"localityCount":1},{"code":"1212","country":"au","state":"NSW","stateFull":"New South Wales","locality":"Australia Square","localities":["Australia Square"],"lga":"Inner West","electorate":"Sydney","type":"LVR","remoteness":"","lat":-33.8650889,"lng":151.2077472,"localityCount":1},{"code":"1213","country":"au","state":"NSW","stateFull":"New South Wales","locality":"Australia Square","localities":["Australia Square"],"lga":"Inner West","electorate":"Sydney","type":"LVR","remoteness":"","lat":-33.8646583,"lng":151.2077003,"localityCount":1},{"code":"1214","country":"au","state":"NSW","stateFull":"New South Wales","locality":"Australia Square","localities":["Australia Square"],"lga":"Inner West","electorate":"Sydney","type":"LVR","remoteness":"","lat":-33.8646583,"lng":151.2077003,"localityCount":1},{"code":"1215","country":"au","state":"NSW","stateFull":"New South Wales","locality":"Australia Square","localities":["Australia Square"],"lga":"Inner West","electorate":"Sydney","type":"Post Office Boxes","remoteness":"","lat":-33.8650889,"lng":151.2077472,"localityCount":1},{"code":"1216","country":"au","state":"NSW","stateFull":"New South Wales","locality":"Grosvenor Place","localities":["Grosvenor Place"],"lga":"Parramatta","electorate":"Sydney","type":"LVR","remoteness":"","lat":-33.7421131,"lng":151.0336854,"localityCount":1},{"code":"1217","country":"au","state":"NSW","stateFull":"New South Wales","locality":"Grosvenor Place","localities":["Grosvenor Place"],"lga":"Parramatta","electorate":"Sydney","type":"LVR","remoteness":"","lat":-33.7421131,"lng":151.0336854,"localityCount":1},{"code":"1218","country":"au","state":"NSW","stateFull":"New South Wales","locality":"Grosvenor Place","localities":["Grosvenor Place"],"lga":"Parramatta","electorate":"Sydney","type":"LVR","remoteness":"","lat":-33.7421131,"lng":151.0336854,"localityCount":1},{"code":"1219","country":"au","state":"NSW","stateFull":"New South Wales","locality":"Grosvenor Place","localities":["Grosvenor Place"],"lga":"Parramatta","electorate":"Sydney","type":"LVR","remoteness":"","lat":-33.7421131,"lng":151.0336854,"localityCount":1},{"code":"1220","country":"au","state":"NSW","stateFull":"New South Wales","locality":"Grosvenor Place","localities":["Grosvenor Place"],"lga":"Parramatta","electorate":"Sydney","type":"Post Office Boxes","remoteness":"","lat":-33.0100063,"lng":151.6579131,"localityCount":1},{"code":"1221","country":"au","state":"NSW","stateFull":"New South Wales","locality":"Royal Exchange","localities":["Royal Exchange"],"lga":"Sydney","electorate":"Sydney","type":"LVR","remoteness":"","lat":-33.8638362,"lng":151.2092356,"localityCount":1},{"code":"1222","country":"au","state":"NSW","stateFull":"New South Wales","locality":"Royal Exchange","localities":["Royal Exchange"],"lga":"Sydney","electorate":"Sydney","type":"LVR","remoteness":"","lat":-33.8638362,"lng":151.2092356,"localityCount":1},{"code":"1223","country":"au","state":"NSW","stateFull":"New South Wales","locality":"Royal Exchange","localities":["Royal Exchange"],"lga":"Sydney","electorate":"Sydney","type":"LVR","remoteness":"","lat":-33.8638362,"lng":151.2092356,"localityCount":1},{"code":"1224","country":"au","state":"NSW","stateFull":"New South Wales","locality":"Royal Exchange","localities":["Royal Exchange"],"lga":"Sydney","electorate":"Sydney","type":"LVR","remoteness":"","lat":-33.8638362,"lng":151.2092356,"localityCount":1},{"code":"1225","country":"au","state":"NSW","stateFull":"New South Wales","locality":"Royal Exchange","localities":["Royal Exchange"],"lga":"Sydney","electorate":"Sydney","type":"Post Office Boxes","remoteness":"","lat":-33.8638362,"lng":151.2092356,"localityCount":1},{"code":"1226","country":"au","state":"NSW","stateFull":"New South Wales","locality":"Queen Victoria Building","localities":["Queen Victoria Building"],"lga":"Sydney","electorate":"Sydney","type":"LVR","remoteness":"","lat":-33.871722,"lng":151.2067078,"localityCount":1},{"code":"1227","country":"au","state":"NSW","stateFull":"New South Wales","locality":"Queen Victoria Building","localities":["Queen Victoria Building"],"lga":"Sydney","electorate":"Sydney","type":"LVR","remoteness":"","lat":-33.871722,"lng":151.2067078,"localityCount":1},{"code":"1228","country":"au","state":"NSW","stateFull":"New South Wales","locality":"Queen Victoria Building","localities":["Queen Victoria Building"],"lga":"Sydney","electorate":"Sydney","type":"LVR","remoteness":"","lat":-33.871722,"lng":151.2067078,"localityCount":1},{"code":"1229","country":"au","state":"NSW","stateFull":"New South Wales","locality":"Queen Victoria Building","localities":["Queen Victoria Building"],"lga":"Sydney","electorate":"Sydney","type":"LVR","remoteness":"","lat":-33.871722,"lng":151.2067078,"localityCount":1},{"code":"1230","country":"au","state":"NSW","stateFull":"New South Wales","locality":"Queen Victoria Building","localities":["Queen Victoria Building"],"lga":"Sydney","electorate":"Sydney","type":"Post Office Boxes","remoteness":"","lat":-33.871722,"lng":151.2067078,"localityCount":1},{"code":"1231","country":"au","state":"NSW","stateFull":"New South Wales","locality":"Sydney South","localities":["Sydney South"],"lga":"Parramatta","electorate":"Sydney","type":"LVR","remoteness":"","lat":-33.8688197,"lng":151.2092955,"localityCount":1},{"code":"1232","country":"au","state":"NSW","stateFull":"New South Wales","locality":"Sydney South","localities":["Sydney South"],"lga":"Parramatta","electorate":"Sydney","type":"LVR","remoteness":"","lat":-33.8688197,"lng":151.2092955,"localityCount":1},{"code":"1233","country":"au","state":"NSW","stateFull":"New South Wales","locality":"Sydney South","localities":["Sydney South"],"lga":"Parramatta","electorate":"Sydney","type":"LVR","remoteness":"","lat":-33.8688197,"lng":151.2092955,"localityCount":1},{"code":"1234","country":"au","state":"NSW","stateFull":"New South Wales","locality":"Sydney South","localities":["Sydney South"],"lga":"Parramatta","electorate":"Sydney","type":"LVR","remoteness":"","lat":-33.8688197,"lng":151.2092955,"localityCount":1},{"code":"1235","country":"au","state":"NSW","stateFull":"New South Wales","locality":"Sydney South","localities":["Sydney South"],"lga":"Parramatta","electorate":"Sydney","type":"Post Office Boxes","remoteness":"","lat":-33.8688197,"lng":151.2092955,"localityCount":1},{"code":"1236","country":"au","state":"NSW","stateFull":"New South Wales","locality":"Haymarket","localities":["Haymarket"],"lga":"Glen Innes Severn","electorate":"Sydney","type":"LVR","remoteness":"","lat":-33.88092,"lng":151.20294,"localityCount":1},{"code":"1237","country":"au","state":"NSW","stateFull":"New South Wales","locality":"Haymarket","localities":["Haymarket"],"lga":"Glen Innes Severn","electorate":"Sydney","type":"LVR","remoteness":"","lat":-33.88092,"lng":151.20294,"localityCount":1},{"code":"1238","country":"au","state":"NSW","stateFull":"New South Wales","locality":"Haymarket","localities":["Haymarket"],"lga":"Glen Innes Severn","electorate":"Sydney","type":"LVR","remoteness":"","lat":-33.88092,"lng":151.20294,"localityCount":1},{"code":"1239","country":"au","state":"NSW","stateFull":"New South Wales","locality":"Haymarket","localities":["Haymarket"],"lga":"Glen Innes Severn","electorate":"Sydney","type":"LVR","remoteness":"","lat":-33.88092,"lng":151.20294,"localityCount":1},{"code":"1240","country":"au","state":"NSW","stateFull":"New South Wales","locality":"Haymarket","localities":["Haymarket"],"lga":"Glen Innes Severn","electorate":"Sydney","type":"Post Office Boxes","remoteness":"","lat":-33.88092,"lng":151.20294,"localityCount":1},{"code":"1291","country":"au","state":"NSW","stateFull":"New South Wales","locality":"Sydney","localities":["Sydney"],"lga":"Sydney","electorate":"Sydney","type":"LVR","remoteness":"","lat":-33.8688197,"lng":151.2092955,"localityCount":1},{"code":"1292","country":"au","state":"NSW","stateFull":"New South Wales","locality":"Sydney","localities":["Sydney"],"lga":"Sydney","electorate":"Sydney","type":"LVR","remoteness":"","lat":-33.8688197,"lng":151.2092955,"localityCount":1},{"code":"1293","country":"au","state":"NSW","stateFull":"New South Wales","locality":"Sydney","localities":["Sydney"],"lga":"Sydney","electorate":"Sydney","type":"LVR","remoteness":"","lat":-33.8688197,"lng":151.2092955,"localityCount":1},{"code":"1294","country":"au","state":"NSW","stateFull":"New South Wales","locality":"Sydney","localities":["Sydney"],"lga":"Sydney","electorate":"Sydney","type":"LVR","remoteness":"","lat":-33.8688197,"lng":151.2092955,"localityCount":1},{"code":"1295","country":"au","state":"NSW","stateFull":"New South Wales","locality":"Sydney","localities":["Sydney"],"lga":"Sydney","electorate":"Sydney","type":"LVR","remoteness":"","lat":-33.8688197,"lng":151.2092955,"localityCount":1},{"code":"1296","country":"au","state":"NSW","stateFull":"New South Wales","locality":"Sydney","localities":["Sydney"],"lga":"Sydney","electorate":"Sydney","type":"LVR","remoteness":"","lat":-33.8688197,"lng":151.2092955,"localityCount":1},{"code":"1297","country":"au","state":"NSW","stateFull":"New South Wales","locality":"Sydney","localities":["Sydney"],"lga":"Sydney","electorate":"Sydney","type":"LVR","remoteness":"","lat":-33.8688197,"lng":151.2092955,"localityCount":1},{"code":"1298","country":"au","state":"NSW","stateFull":"New South Wales","locality":"Sydney","localities":["Sydney"],"lga":"Sydney","electorate":"Sydney","type":"LVR","remoteness":"","lat":-33.8688197,"lng":151.2092955,"localityCount":1},{"code":"1299","country":"au","state":"NSW","stateFull":"New South Wales","locality":"Sydney","localities":["Sydney"],"lga":"Sydney","electorate":"Sydney","type":"LVR","remoteness":"","lat":-33.8688197,"lng":151.2092955,"localityCount":1},{"code":"1300","country":"au","state":"NSW","stateFull":"New South Wales","locality":"Darlinghurst","localities":["Darlinghurst"],"lga":"Sydney","electorate":"Sydney","type":"Post Office Boxes","remoteness":"","lat":-33.8780176,"lng":151.2204441,"localityCount":1},{"code":"1314","country":"au","state":"NSW","stateFull":"New South Wales","locality":"Eastern Suburbs Mc","localities":["Eastern Suburbs Mc"],"lga":"Randwick","electorate":"Durack","type":"Delivery Area","remoteness":"","lat":-33.9508,"lng":151.21,"localityCount":1},{"code":"1335","country":"au","state":"NSW","stateFull":"New South Wales","locality":"Potts Point","localities":["Potts Point"],"lga":"Ryde","electorate":"Sydney","type":"Post Office Boxes","remoteness":"","lat":-33.86795,"lng":151.22411,"localityCount":1},{"code":"1340","country":"au","state":"NSW","stateFull":"New South Wales","locality":"Kings Cross","localities":["Kings Cross"],"lga":"Snowy Valleys","electorate":"Sydney","type":"Post Office Boxes","remoteness":"","lat":-33.8733512,"lng":151.2242345,"localityCount":1},{"code":"1350","country":"au","state":"NSW","stateFull":"New South Wales","locality":"Woollahra","localities":["Woollahra"],"lga":"Woollahra","electorate":"Sydney","type":"Delivery Area","remoteness":"","lat":-33.8865,"lng":151.242,"localityCount":1},{"code":"1355","country":"au","state":"NSW","stateFull":"New South Wales","locality":"Bondi Junction","localities":["Bondi Junction"],"lga":"Waverley","electorate":"Wentworth","type":"Post Office Boxes","remoteness":"","lat":-33.89145,"lng":151.2497,"localityCount":1},{"code":"1360","country":"au","state":"NSW","stateFull":"New South Wales","locality":"Double Bay","localities":["Double Bay"],"lga":"Woollahra","electorate":"Wentworth","type":"Post Office Boxes","remoteness":"","lat":-33.8775,"lng":151.2412,"localityCount":1},{"code":"1401","country":"au","state":"NSW","stateFull":"New South Wales","locality":"Broadway","localities":["Broadway"],"lga":"Sydney","electorate":"Hume","type":"LVR","remoteness":"","lat":-34.7057762,"lng":149.135033,"localityCount":1},{"code":"1405","country":"au","state":"NSW","stateFull":"New South Wales","locality":"Chullora","localities":["Chullora"],"lga":"Yass Valley","electorate":"","type":"Post Office Boxes","remoteness":"","lat":-33.89194485,"lng":151.0477059,"localityCount":1},{"code":"1419","country":"au","state":"NSW","stateFull":"New South Wales","locality":"Southern Suburbs Mc","localities":["Southern Suburbs Mc"],"lga":"Sutherland","electorate":"Banks","type":"Delivery Area","remoteness":"","lat":-34.0641,"lng":151.094,"localityCount":1},{"code":"1420","country":"au","state":"NSW","stateFull":"New South Wales","locality":"Strawberry Hills","localities":["Strawberry Hills"],"lga":"Blacktown","electorate":"Banks","type":"LVR","remoteness":"","lat":-33.8882671,"lng":151.2078465,"localityCount":1},{"code":"1422","country":"au","state":"NSW","stateFull":"New South Wales","locality":"Strawberry Hills","localities":["Strawberry Hills"],"lga":"Blacktown","electorate":"Banks","type":"LVR","remoteness":"","lat":-33.8882671,"lng":151.2078465,"localityCount":1},{"code":"1423","country":"au","state":"NSW","stateFull":"New South Wales","locality":"Strawberry Hills","localities":["Strawberry Hills"],"lga":"Blacktown","electorate":"Banks","type":"LVR","remoteness":"","lat":-33.8882671,"lng":151.2078465,"localityCount":1},{"code":"1424","country":"au","state":"NSW","stateFull":"New South Wales","locality":"Strawberry Hills","localities":["Strawberry Hills"],"lga":"Blacktown","electorate":"Banks","type":"LVR","remoteness":"","lat":-33.8882671,"lng":151.2078465,"localityCount":1},{"code":"1425","country":"au","state":"NSW","stateFull":"New South Wales","locality":"Strawberry Hills","localities":["Strawberry Hills"],"lga":"Blacktown","electorate":"Banks","type":"LVR","remoteness":"","lat":-33.8882671,"lng":151.2078465,"localityCount":1},{"code":"1426","country":"au","state":"NSW","stateFull":"New South Wales","locality":"Strawberry Hills","localities":["Strawberry Hills"],"lga":"Blacktown","electorate":"Banks","type":"LVR","remoteness":"","lat":-33.8882671,"lng":151.2078465,"localityCount":1},{"code":"1427","country":"au","state":"NSW","stateFull":"New South Wales","locality":"Strawberry Hills","localities":["Strawberry Hills"],"lga":"Blacktown","electorate":"Banks","type":"LVR","remoteness":"","lat":-33.8882671,"lng":151.2078465,"localityCount":1},{"code":"1428","country":"au","state":"NSW","stateFull":"New South Wales","locality":"Strawberry Hills","localities":["Strawberry Hills"],"lga":"Blacktown","electorate":"Banks","type":"LVR","remoteness":"","lat":-33.8882671,"lng":151.2078465,"localityCount":1},{"code":"1429","country":"au","state":"NSW","stateFull":"New South Wales","locality":"Strawberry Hills","localities":["Strawberry Hills"],"lga":"Blacktown","electorate":"Banks","type":"LVR","remoteness":"","lat":-33.8882671,"lng":151.2078465,"localityCount":1},{"code":"1430","country":"au","state":"NSW","stateFull":"New South Wales","locality":"Eveleigh","localities":["Eveleigh"],"lga":"Sydney","electorate":"Banks","type":"LVR","remoteness":"","lat":-33.895,"lng":151.191,"localityCount":1},{"code":"1435","country":"au","state":"NSW","stateFull":"New South Wales","locality":"Alexandria","localities":["Alexandria"],"lga":"Ku-ring-gai","electorate":"Sydney","type":"Post Office Boxes","remoteness":"","lat":-33.9080273,"lng":151.1902576,"localityCount":1},{"code":"1440","country":"au","state":"NSW","stateFull":"New South Wales","locality":"Waterloo","localities":["Waterloo"],"lga":"Canterbury-Bankstown","electorate":"Banks","type":"Post Office Boxes","remoteness":"","lat":-33.9002604,"lng":151.2061803,"localityCount":1},{"code":"1441","country":"au","state":"NSW","stateFull":"New South Wales","locality":"Waterloo","localities":["Waterloo"],"lga":"Canterbury-Bankstown","electorate":"Banks","type":"LVR","remoteness":"","lat":-33.9002604,"lng":151.2061803,"localityCount":1},{"code":"1445","country":"au","state":"NSW","stateFull":"New South Wales","locality":"Rosebery","localities":["Rosebery"],"lga":"Sutherland","electorate":"Banks","type":"Post Office Boxes","remoteness":"","lat":-33.9221918,"lng":151.201678,"localityCount":1},{"code":"1450","country":"au","state":"NSW","stateFull":"New South Wales","locality":"Camperdown","localities":["Camperdown"],"lga":"Coffs Harbour","electorate":"Banks","type":"Post Office Boxes","remoteness":"","lat":-33.8862243,"lng":151.1791091,"localityCount":1},{"code":"1455","country":"au","state":"NSW","stateFull":"New South Wales","locality":"Botany","localities":["Botany"],"lga":"Bayside (NSW)","electorate":"Kingsford Smith","type":"Post Office Boxes","remoteness":"","lat":-33.9469267,"lng":151.1973167,"localityCount":1},{"code":"1460","country":"au","state":"NSW","stateFull":"New South Wales","locality":"Mascot","localities":["Mascot"],"lga":"Randwick","electorate":"Kingsford Smith","type":"Post Office Boxes","remoteness":"","lat":-33.9296324,"lng":151.1946223,"localityCount":1},{"code":"1465","country":"au","state":"NSW","stateFull":"New South Wales","locality":"Kensington","localities":["Kensington"],"lga":"Inner West","electorate":"Banks","type":"Post Office Boxes","remoteness":"","lat":-33.910021,"lng":151.2232749,"localityCount":1},{"code":"1466","country":"au","state":"NSW","stateFull":"New South Wales","locality":"Unsw Sydney","localities":["Unsw Sydney"],"lga":"Sydney","electorate":"Banks","type":"Post Office Boxes","remoteness":"","lat":-33.917347,"lng":151.2312675,"localityCount":1},{"code":"1470","country":"au","state":"NSW","stateFull":"New South Wales","locality":"Drummoyne","localities":["Drummoyne"],"lga":"Hunters Hill","electorate":"Reid","type":"Post Office Boxes","remoteness":"","lat":-33.8510541,"lng":151.1545209,"localityCount":1},{"code":"1475","country":"au","state":"NSW","stateFull":"New South Wales","locality":"Marrickville","localities":["Marrickville"],"lga":"Inner West","electorate":"Grayndler","type":"Post Office Boxes","remoteness":"","lat":-33.908667,"lng":151.1524142,"localityCount":1},{"code":"1476","country":"au","state":"NSW","stateFull":"New South Wales","locality":"Marrickville","localities":["Marrickville"],"lga":"Inner West","electorate":"Banks","type":"LVR","remoteness":"","lat":-33.908667,"lng":151.1524142,"localityCount":1},{"code":"1480","country":"au","state":"NSW","stateFull":"New South Wales","locality":"Kingsgrove","localities":["Kingsgrove"],"lga":"Georges River","electorate":"Banks","type":"Post Office Boxes","remoteness":"","lat":-33.9386352,"lng":151.100641,"localityCount":1},{"code":"1481","country":"au","state":"NSW","stateFull":"New South Wales","locality":"Hurstville Bc","localities":["Hurstville Bc"],"lga":"Georges River","electorate":"Barton","type":"Delivery Area","remoteness":"","lat":-33.9646,"lng":151.101,"localityCount":1},{"code":"1484","country":"au","state":"NSW","stateFull":"New South Wales","locality":"Kingsgrove Dc","localities":["Kingsgrove Dc"],"lga":"Georges River","electorate":"Banks","type":"Delivery Area","remoteness":"","lat":-33.9386,"lng":151.101,"localityCount":1},{"code":"1485","country":"au","state":"NSW","stateFull":"New South Wales","locality":"Kogarah","localities":["Kogarah"],"lga":"Bayside (NSW)","electorate":"Barton","type":"Delivery Area","remoteness":"","lat":-33.9644,"lng":151.137,"localityCount":1},{"code":"1490","country":"au","state":"NSW","stateFull":"New South Wales","locality":"Miranda","localities":["Miranda"],"lga":"Sutherland","electorate":"Banks","type":"Post Office Boxes","remoteness":"","lat":-34.0299364,"lng":151.1055499,"localityCount":1},{"code":"1493","country":"au","state":"NSW","stateFull":"New South Wales","locality":"Hurstville","localities":["Hurstville"],"lga":"Georges River","electorate":"Banks","type":"LVR","remoteness":"","lat":-33.9645633,"lng":151.1010187,"localityCount":1},{"code":"1495","country":"au","state":"NSW","stateFull":"New South Wales","locality":"Caringbah","localities":["Caringbah"],"lga":"Sutherland","electorate":"Cook","type":"Post Office Boxes","remoteness":"","lat":-34.0452,"lng":151.1218,"localityCount":1},{"code":"1499","country":"au","state":"NSW","stateFull":"New South Wales","locality":"Sutherland","localities":["Sutherland"],"lga":"Georges River","electorate":"Hughes","type":"Post Office Boxes","remoteness":"","lat":-34.0297415,"lng":151.059275,"localityCount":1},{"code":"1515","country":"au","state":"NSW","stateFull":"New South Wales","locality":"West Chatswood","localities":["West Chatswood"],"lga":"North Sydney","electorate":"North Sydney","type":"Post Office Boxes","remoteness":"","lat":-33.7966739,"lng":151.1621677,"localityCount":1},{"code":"1560","country":"au","state":"NSW","stateFull":"New South Wales","locality":"Northbridge","localities":["Northbridge"],"lga":"Willoughby","electorate":"Bennelong","type":"Delivery Area","remoteness":"","lat":-33.8132,"lng":151.217,"localityCount":1},{"code":"1565","country":"au","state":"NSW","stateFull":"New South Wales","locality":"Milsons Point","localities":["Milsons Point"],"lga":"Sydney","electorate":"North Sydney","type":"Post Office Boxes","remoteness":"","lat":-33.84765,"lng":151.21201,"localityCount":1},{"code":"1570","country":"au","state":"NSW","stateFull":"New South Wales","locality":"Artarmon","localities":["Artarmon"],"lga":"Willoughby","electorate":"Bennelong","type":"Post Office Boxes","remoteness":"","lat":-33.8093311,"lng":151.185647,"localityCount":1},{"code":"1585","country":"au","state":"NSW","stateFull":"New South Wales","locality":"Crows Nest","localities":["Crows Nest"],"lga":"North Sydney","electorate":"North Sydney","type":"Post Office Boxes","remoteness":"","lat":-33.82613,"lng":151.20505,"localityCount":1},{"code":"1590","country":"au","state":"NSW","stateFull":"New South Wales","locality":"St Leonards","localities":["St Leonards"],"lga":"Central Coast (NSW)","electorate":"North Sydney","type":"Post Office Boxes","remoteness":"","lat":-33.8227402,"lng":151.1942171,"localityCount":1},{"code":"1595","country":"au","state":"NSW","stateFull":"New South Wales","locality":"Lane Cove","localities":["Lane Cove"],"lga":"Lane Cove","electorate":"North Sydney","type":"Post Office Boxes","remoteness":"","lat":-33.8148145,"lng":151.1663935,"localityCount":1},{"code":"1597","country":"au","state":"NSW","stateFull":"New South Wales","locality":"Lane Cove","localities":["Lane Cove"],"lga":"Lane Cove","electorate":"Bennelong","type":"LVR","remoteness":"","lat":-33.8148145,"lng":151.1663935,"localityCount":1},{"code":"1602","country":"au","state":"NSW","stateFull":"New South Wales","locality":"Lane Cove Dc","localities":["Lane Cove Dc"],"lga":"Lane Cove","electorate":"Bennelong","type":"Delivery Area","remoteness":"","lat":-33.8148,"lng":151.166,"localityCount":1},{"code":"1630","country":"au","state":"NSW","stateFull":"New South Wales","locality":"Hornsby","localities":["Hornsby"],"lga":"Hornsby","electorate":"Bradfield","type":"Post Office Boxes","remoteness":"","lat":-33.7046328,"lng":151.0987055,"localityCount":1},{"code":"1635","country":"au","state":"NSW","stateFull":"New South Wales","locality":"Hornsby Westfield","localities":["Hornsby Westfield"],"lga":"Ku-ring-gai","electorate":"Berowra","type":"Delivery Area","remoteness":"","lat":-33.7046,"lng":151.101,"localityCount":1},{"code":"1639","country":"au","state":"NSW","stateFull":"New South Wales","locality":"Frenchs Forest","localities":["Frenchs Forest"],"lga":"Mosman","electorate":"Berowra","type":"LVR","remoteness":"","lat":-33.749,"lng":151.2331,"localityCount":1},{"code":"1640","country":"au","state":"NSW","stateFull":"New South Wales","locality":"Frenchs Forest","localities":["Frenchs Forest"],"lga":"Mosman","electorate":"Mackellar","type":"Post Office Boxes","remoteness":"","lat":-33.749,"lng":151.2331,"localityCount":1},{"code":"1655","country":"au","state":"NSW","stateFull":"New South Wales","locality":"Manly","localities":["Manly"],"lga":"Central Coast (NSW)","electorate":"Warringah","type":"Post Office Boxes","remoteness":"","lat":-33.8060158,"lng":151.2947775,"localityCount":1},{"code":"1658","country":"au","state":"NSW","stateFull":"New South Wales","locality":"Mona Vale","localities":["Mona Vale"],"lga":"Northern Beaches","electorate":"Mackellar","type":"LVR","remoteness":"","lat":-33.67596,"lng":151.30653,"localityCount":1},{"code":"1660","country":"au","state":"NSW","stateFull":"New South Wales","locality":"Mona Vale","localities":["Mona Vale"],"lga":"Northern Beaches","electorate":"Mackellar","type":"Post Office Boxes","remoteness":"","lat":-33.67596,"lng":151.30653,"localityCount":1},{"code":"1670","country":"au","state":"NSW","stateFull":"New South Wales","locality":"North Ryde","localities":["North Ryde","North Ryde Bc"],"lga":"Ryde","electorate":"Bennelong","type":"Post Office Boxes","remoteness":"","lat":-33.7932,"lng":151.12,"localityCount":2},{"code":"1675","country":"au","state":"NSW","stateFull":"New South Wales","locality":"Gladesville","localities":["Gladesville"],"lga":"Hunters Hill","electorate":"Bennelong","type":"Post Office Boxes","remoteness":"","lat":-33.8301698,"lng":151.1267591,"localityCount":1},{"code":"1680","country":"au","state":"NSW","stateFull":"New South Wales","locality":"Ryde","localities":["Ryde"],"lga":"Ryde","electorate":"Mackellar","type":"Post Office Boxes","remoteness":"","lat":-33.8157466,"lng":151.1030164,"localityCount":1},{"code":"1685","country":"au","state":"NSW","stateFull":"New South Wales","locality":"West Ryde","localities":["West Ryde"],"lga":"Ryde","electorate":"Mackellar","type":"Post Office Boxes","remoteness":"","lat":-33.8067672,"lng":151.0824602,"localityCount":1},{"code":"1700","country":"au","state":"NSW","stateFull":"New South Wales","locality":"Ermington","localities":["Ermington"],"lga":"Randwick","electorate":"Robertson","type":"Post Office Boxes","remoteness":"","lat":-33.8143301,"lng":151.0562386,"localityCount":1},{"code":"1710","country":"au","state":"NSW","stateFull":"New South Wales","locality":"Epping","localities":["Epping"],"lga":"Ryde","electorate":"Bennelong","type":"Post Office Boxes","remoteness":"","lat":-33.7746,"lng":151.0788,"localityCount":1},{"code":"1715","country":"au","state":"NSW","stateFull":"New South Wales","locality":"Pennant Hills","localities":["Pennant Hills"],"lga":"Parramatta","electorate":"Robertson","type":"Post Office Boxes","remoteness":"","lat":-33.738881,"lng":151.0723841,"localityCount":1},{"code":"1730","country":"au","state":"NSW","stateFull":"New South Wales","locality":"Seven Hills","localities":["Seven Hills"],"lga":"Parramatta","electorate":"Robertson","type":"Post Office Boxes","remoteness":"","lat":-33.7779167,"lng":150.931946,"localityCount":1},{"code":"1740","country":"au","state":"NSW","stateFull":"New South Wales","locality":"Parramatta","localities":["Parramatta"],"lga":"Parramatta","electorate":"Robertson","type":"LVR","remoteness":"","lat":-33.8135571,"lng":151.003407,"localityCount":1},{"code":"1741","country":"au","state":"NSW","stateFull":"New South Wales","locality":"Parramatta","localities":["Parramatta"],"lga":"Parramatta","electorate":"Robertson","type":"LVR","remoteness":"","lat":-33.8135571,"lng":151.003407,"localityCount":1},{"code":"1750","country":"au","state":"NSW","stateFull":"New South Wales","locality":"North Parramatta","localities":["North Parramatta"],"lga":"Cumberland","electorate":"Parramatta","type":"Post Office Boxes","remoteness":"","lat":-33.800281,"lng":151.0042445,"localityCount":1},{"code":"1755","country":"au","state":"NSW","stateFull":"New South Wales","locality":"Baulkham Hills","localities":["Baulkham Hills"],"lga":"Parramatta","electorate":"Mitchell","type":"Post Office Boxes","remoteness":"","lat":-33.7619106,"lng":150.9929255,"localityCount":1},{"code":"1765","country":"au","state":"NSW","stateFull":"New South Wales","locality":"Castle Hill","localities":["Castle Hill"],"lga":"Parramatta","electorate":"Mitchell","type":"Post Office Boxes","remoteness":"","lat":-33.7311837,"lng":151.0042006,"localityCount":1},{"code":"1771","country":"au","state":"NSW","stateFull":"New South Wales","locality":"Pennant Hills","localities":["Pennant Hills"],"lga":"Parramatta","electorate":"Robertson","type":"LVR","remoteness":"","lat":-33.738881,"lng":151.0723841,"localityCount":1},{"code":"1781","country":"au","state":"NSW","stateFull":"New South Wales","locality":"Seven Hills Mc","localities":["Seven Hills Mc"],"lga":"Blacktown","electorate":"Robertson","type":"Delivery Area","remoteness":"","lat":-33.7779,"lng":150.932,"localityCount":1},{"code":"1790","country":"au","state":"NSW","stateFull":"New South Wales","locality":"St Marys","localities":["St Marys"],"lga":"North Sydney","electorate":"Lindsay","type":"Post Office Boxes","remoteness":"","lat":-33.769979,"lng":150.7734575,"localityCount":1},{"code":"1800","country":"au","state":"NSW","stateFull":"New South Wales","locality":"Ashfield","localities":["Ashfield"],"lga":"Burwood","electorate":"Robertson","type":"Post Office Boxes","remoteness":"","lat":-33.8889,"lng":151.1249,"localityCount":1},{"code":"1805","country":"au","state":"NSW","stateFull":"New South Wales","locality":"Burwood","localities":["Burwood"],"lga":"Burwood","electorate":"Robertson","type":"Post Office Boxes","remoteness":"","lat":-33.8773941,"lng":151.1036621,"localityCount":1},{"code":"1811","country":"au","state":"NSW","stateFull":"New South Wales","locality":"Silverwater","localities":["Silverwater"],"lga":"Parramatta","electorate":"Robertson","type":"Post Office Boxes","remoteness":"","lat":-33.8339902,"lng":151.0482995,"localityCount":1},{"code":"1819","country":"au","state":"NSW","stateFull":"New South Wales","locality":"Strathfield","localities":["Strathfield"],"lga":"Strathfield","electorate":"Robertson","type":"LVR","remoteness":"","lat":-33.8774826,"lng":151.0823602,"localityCount":1},{"code":"1825","country":"au","state":"NSW","stateFull":"New South Wales","locality":"Lidcombe","localities":["Lidcombe"],"lga":"Strathfield","electorate":"Reid","type":"Delivery Area","remoteness":"","lat":-33.8652,"lng":151.044,"localityCount":1},{"code":"1830","country":"au","state":"NSW","stateFull":"New South Wales","locality":"Granville","localities":["Granville"],"lga":"Cumberland","electorate":"Robertson","type":"LVR","remoteness":"","lat":-33.8353132,"lng":151.0065546,"localityCount":1},{"code":"1831","country":"au","state":"NSW","stateFull":"New South Wales","locality":"Granville","localities":["Granville"],"lga":"Cumberland","electorate":"Robertson","type":"LVR","remoteness":"","lat":-33.8353132,"lng":151.0065546,"localityCount":1},{"code":"1835","country":"au","state":"NSW","stateFull":"New South Wales","locality":"Auburn","localities":["Auburn"],"lga":"Canterbury-Bankstown","electorate":"Blaxland","type":"Post Office Boxes","remoteness":"","lat":-33.8605837,"lng":151.02475,"localityCount":1},{"code":"1851","country":"au","state":"NSW","stateFull":"New South Wales","locality":"Wetherill Park","localities":["Wetherill Park","Wetherill Park Dc"],"lga":"Fairfield","electorate":"McMahon","type":"Post Office Boxes","remoteness":"","lat":-33.8498,"lng":150.911,"localityCount":2},{"code":"1860","country":"au","state":"NSW","stateFull":"New South Wales","locality":"Fairfield","localities":["Fairfield"],"lga":"Fairfield","electorate":"McMahon","type":"Post Office Boxes","remoteness":"","lat":-33.8705856,"lng":150.9564102,"localityCount":1},{"code":"1871","country":"au","state":"NSW","stateFull":"New South Wales","locality":"Liverpool","localities":["Liverpool"],"lga":"Liverpool","electorate":"Fowler","type":"Post Office Boxes","remoteness":"","lat":-33.9285567,"lng":150.9179595,"localityCount":1},{"code":"1874","country":"au","state":"NSW","stateFull":"New South Wales","locality":"Moorebank","localities":["Moorebank"],"lga":"Liverpool","electorate":"","type":"LVR","remoteness":"","lat":-33.93566973,"lng":150.9413383,"localityCount":1},{"code":"1875","country":"au","state":"NSW","stateFull":"New South Wales","locality":"Moorebank","localities":["Moorebank"],"lga":"Liverpool","electorate":"Hughes","type":"Post Office Boxes","remoteness":"","lat":-33.9397082,"lng":150.9249864,"localityCount":1},{"code":"1885","country":"au","state":"NSW","stateFull":"New South Wales","locality":"Bankstown","localities":["Bankstown"],"lga":"Canterbury-Bankstown","electorate":"Blaxland","type":"Post Office Boxes","remoteness":"","lat":-33.91817,"lng":151.03497,"localityCount":1},{"code":"1888","country":"au","state":"NSW","stateFull":"New South Wales","locality":"Bankstown","localities":["Bankstown"],"lga":"Canterbury-Bankstown","electorate":"Werriwa","type":"LVR","remoteness":"","lat":-33.91817,"lng":151.03497,"localityCount":1},{"code":"1890","country":"au","state":"NSW","stateFull":"New South Wales","locality":"Ingleburn","localities":["Ingleburn"],"lga":"Liverpool","electorate":"Werriwa","type":"Post Office Boxes","remoteness":"","lat":-34.0044124,"lng":150.8630229,"localityCount":1},{"code":"1891","country":"au","state":"NSW","stateFull":"New South Wales","locality":"Milperra","localities":["Milperra"],"lga":"Canterbury-Bankstown","electorate":"Werriwa","type":"Post Office Boxes","remoteness":"","lat":-33.9370869,"lng":150.9827465,"localityCount":1},{"code":"2000","country":"au","state":"NSW","stateFull":"New South Wales","locality":"Sydney","localities":["Barangaroo","Darling Harbour","Dawes Point","Haymarket","Millers Point","Parliament House","Sydney","Sydney South","The Rocks"],"lga":"Sydney","electorate":"Sydney","type":"Delivery Area","remoteness":"Major Cities of Australia","lat":-33.8638,"lng":151.202,"localityCount":9},{"code":"2001","country":"au","state":"NSW","stateFull":"New South Wales","locality":"Sydney","localities":["Sydney"],"lga":"Sydney","electorate":"Sydney","type":"Post Office Boxes","remoteness":"","lat":-33.8688197,"lng":151.2092955,"localityCount":1},{"code":"2002","country":"au","state":"NSW","stateFull":"New South Wales","locality":"World Square","localities":["World Square"],"lga":"Sydney","electorate":"Sydney","type":"Post Office Boxes","remoteness":"","lat":-33.8771211,"lng":151.2069237,"localityCount":1},{"code":"2004","country":"au","state":"NSW","stateFull":"New South Wales","locality":"Alexandria Mc","localities":["Alexandria Mc","Eastern Suburbs Mc"],"lga":"Sydney","electorate":"Sydney","type":"Delivery Area","remoteness":"","lat":-33.908,"lng":151.19,"localityCount":2},{"code":"2006","country":"au","state":"NSW","stateFull":"New South Wales","locality":"The University Of Sydney","localities":["The University Of Sydney"],"lga":"Sydney","electorate":"Sydney","type":"Delivery Area","remoteness":"","lat":-33.8885748,"lng":151.1873494,"localityCount":1},{"code":"2007","country":"au","state":"NSW","stateFull":"New South Wales","locality":"Broadway","localities":["Broadway","Ultimo"],"lga":"Sydney","electorate":"Sydney","type":"Delivery Area","remoteness":"Major Cities of Australia","lat":-33.8842554,"lng":151.1982225,"localityCount":2},{"code":"2008","country":"au","state":"NSW","stateFull":"New South Wales","locality":"Chippendale","localities":["Chippendale","Darlington","Golden Grove"],"lga":"Sydney","electorate":"Sydney","type":"Delivery Area","remoteness":"Major Cities of Australia","lat":-33.8863,"lng":151.1999,"localityCount":3},{"code":"2009","country":"au","state":"NSW","stateFull":"New South Wales","locality":"Darling Island","localities":["Darling Island","Pyrmont"],"lga":"Sydney","electorate":"Sydney","type":"Delivery Area","remoteness":"Major Cities of Australia","lat":-33.8649,"lng":151.196,"localityCount":2},{"code":"2010","country":"au","state":"NSW","stateFull":"New South Wales","locality":"Darlinghurst","localities":["Darlinghurst","Surry Hills","Taylor Square"],"lga":"Sydney","electorate":"Sydney","type":"Delivery Area","remoteness":"Major Cities of Australia","lat":-33.8780176,"lng":151.2204441,"localityCount":3},{"code":"2011","country":"au","state":"NSW","stateFull":"New South Wales","locality":"Elizabeth Bay","localities":["Elizabeth Bay","Hmas Kuttabul","Kings Cross","Potts Point","Rushcutters Bay","Woolloomooloo"],"lga":"Sydney","electorate":"Sydney","type":"Delivery Area","remoteness":"Major Cities of Australia","lat":-33.87143,"lng":151.22841,"localityCount":6},{"code":"2012","country":"au","state":"NSW","stateFull":"New South Wales","locality":"Strawberry Hills","localities":["Strawberry Hills"],"lga":"Blacktown","electorate":"Sydney","type":"Post Office Boxes","remoteness":"","lat":-33.8882671,"lng":151.2078465,"localityCount":1},{"code":"2013","country":"au","state":"NSW","stateFull":"New South Wales","locality":"Strawberry Hills","localities":["Strawberry Hills"],"lga":"Blacktown","electorate":"Sydney","type":"Post Office Boxes","remoteness":"","lat":-33.8882671,"lng":151.2078465,"localityCount":1},{"code":"2015","country":"au","state":"NSW","stateFull":"New South Wales","locality":"Alexandria","localities":["Alexandria","Beaconsfield","Eveleigh"],"lga":"Sydney","electorate":"Sydney","type":"Delivery Area","remoteness":"Major Cities of Australia","lat":-33.9080273,"lng":151.1902576,"localityCount":3},{"code":"2016","country":"au","state":"NSW","stateFull":"New South Wales","locality":"Redfern","localities":["Redfern"],"lga":"Sydney","electorate":"Sydney","type":"Delivery Area","remoteness":"Major Cities of Australia","lat":-33.892215,"lng":151.205873,"localityCount":1},{"code":"2017","country":"au","state":"NSW","stateFull":"New South Wales","locality":"Waterloo","localities":["Waterloo","Waterloo Dc","Zetland"],"lga":"Sydney","electorate":"Sydney","type":"Delivery Area","remoteness":"Major Cities of Australia","lat":-33.9002604,"lng":151.2061803,"localityCount":3},{"code":"2018","country":"au","state":"NSW","stateFull":"New South Wales","locality":"Eastlakes","localities":["Eastlakes","Rosebery"],"lga":"Bayside (NSW)","electorate":"Kingsford Smith","type":"Delivery Area","remoteness":"Major Cities of Australia","lat":-33.9219899,"lng":151.20733,"localityCount":2},{"code":"2019","country":"au","state":"NSW","stateFull":"New South Wales","locality":"Banksmeadow","localities":["Banksmeadow","Botany"],"lga":"Bayside (NSW)","electorate":"Kingsford Smith","type":"Delivery Area","remoteness":"Major Cities of Australia","lat":-33.95731,"lng":151.20699,"localityCount":2},{"code":"2020","country":"au","state":"NSW","stateFull":"New South Wales","locality":"Mascot","localities":["Mascot","Sydney Domestic Airport","Sydney International Airport"],"lga":"Sydney","electorate":"Kingsford Smith","type":"Delivery Area","remoteness":"Major Cities of Australia","lat":-33.9296324,"lng":151.1946223,"localityCount":3},{"code":"2021","country":"au","state":"NSW","stateFull":"New South Wales","locality":"Centennial Park","localities":["Centennial Park","Moore Park","Paddington"],"lga":"Randwick","electorate":"Wentworth","type":"Delivery Area","remoteness":"Major Cities of Australia","lat":-33.8943,"lng":151.233,"localityCount":3},{"code":"2022","country":"au","state":"NSW","stateFull":"New South Wales","locality":"Bondi Junction","localities":["Bondi Junction","Bondi Junction Plaza","Queens Park"],"lga":"Waverley","electorate":"Wentworth","type":"Delivery Area","remoteness":"Major Cities of Australia","lat":-33.89145,"lng":151.2497,"localityCount":3},{"code":"2023","country":"au","state":"NSW","stateFull":"New South Wales","locality":"Bellevue Hill","localities":["Bellevue Hill"],"lga":"Woollahra","electorate":"Wentworth","type":"Delivery Area","remoteness":"Major Cities of Australia","lat":-33.8826955,"lng":151.2539627,"localityCount":1},{"code":"2024","country":"au","state":"NSW","stateFull":"New South Wales","locality":"Bronte","localities":["Bronte","Charing Cross","Waverley"],"lga":"Waverley","electorate":"Wentworth","type":"Delivery Area","remoteness":"Major Cities of Australia","lat":-33.90532,"lng":151.26069,"localityCount":3},{"code":"2025","country":"au","state":"NSW","stateFull":"New South Wales","locality":"Woollahra","localities":["Woollahra"],"lga":"Woollahra","electorate":"Wentworth","type":"Delivery Area","remoteness":"Major Cities of Australia","lat":-33.8865002,"lng":151.2437606,"localityCount":1},{"code":"2026","country":"au","state":"NSW","stateFull":"New South Wales","locality":"Ben Buckler","localities":["Ben Buckler","Bondi","Bondi Beach","North Bondi","Tamarama"],"lga":"Waverley","electorate":"Wentworth","type":"Delivery Area","remoteness":"Major Cities of Australia","lat":-33.8898,"lng":151.283,"localityCount":5},{"code":"2027","country":"au","state":"NSW","stateFull":"New South Wales","locality":"Darling Point","localities":["Darling Point","Edgecliff","Hmas Rushcutters","Point Piper"],"lga":"Woollahra","electorate":"Wentworth","type":"Delivery Area","remoteness":"Major Cities of Australia","lat":-33.87021,"lng":151.23746,"localityCount":4},{"code":"2028","country":"au","state":"NSW","stateFull":"New South Wales","locality":"Double Bay","localities":["Double Bay"],"lga":"Woollahra","electorate":"Wentworth","type":"Delivery Area","remoteness":"Major Cities of Australia","lat":-33.8775,"lng":151.2412,"localityCount":1},{"code":"2029","country":"au","state":"NSW","stateFull":"New South Wales","locality":"Rose Bay","localities":["Rose Bay"],"lga":"Waverley","electorate":"Wentworth","type":"Delivery Area","remoteness":"Major Cities of Australia","lat":-33.8754209,"lng":151.265623,"localityCount":1},{"code":"2030","country":"au","state":"NSW","stateFull":"New South Wales","locality":"Diamond Bay","localities":["Diamond Bay","Dover Heights","Hmas Watson","Rose Bay North","Vaucluse","Watsons Bay"],"lga":"Waverley","electorate":"Wentworth","type":"Delivery Area","remoteness":"Major Cities of Australia","lat":-33.8611,"lng":151.28,"localityCount":6},{"code":"2031","country":"au","state":"NSW","stateFull":"New South Wales","locality":"Clovelly","localities":["Clovelly","Clovelly West","Randwick","Randwick Dc","St Pauls"],"lga":"Randwick","electorate":"Kingsford Smith","type":"Delivery Area","remoteness":"Major Cities of Australia","lat":-33.9121,"lng":151.2629,"localityCount":5},{"code":"2032","country":"au","state":"NSW","stateFull":"New South Wales","locality":"Daceyville","localities":["Daceyville","Kingsford"],"lga":"Bayside (NSW)","electorate":"Kingsford Smith","type":"Delivery Area","remoteness":"Major Cities of Australia","lat":-33.92793,"lng":151.22349,"localityCount":2},{"code":"2033","country":"au","state":"NSW","stateFull":"New South Wales","locality":"Kensington","localities":["Kensington"],"lga":"Sydney","electorate":"Kingsford Smith","type":"Delivery Area","remoteness":"Major Cities of Australia","lat":-33.9096151,"lng":151.2189869,"localityCount":1},{"code":"2034","country":"au","state":"NSW","stateFull":"New South Wales","locality":"Coogee","localities":["Coogee","South Coogee"],"lga":"Randwick","electorate":"Kingsford Smith","type":"Delivery Area","remoteness":"Major Cities of Australia","lat":-33.919,"lng":151.2555,"localityCount":2},{"code":"2035","country":"au","state":"NSW","stateFull":"New South Wales","locality":"Maroubra","localities":["Maroubra","Maroubra South","Pagewood"],"lga":"Bayside (NSW)","electorate":"Kingsford Smith","type":"Delivery Area","remoteness":"Major Cities of Australia","lat":-33.9495,"lng":151.2437,"localityCount":3},{"code":"2036","country":"au","state":"NSW","stateFull":"New South Wales","locality":"Chifley","localities":["Chifley","Eastgardens","Hillsdale","La Perouse","Little Bay","Malabar","Matraville","Phillip Bay","Port Botany"],"lga":"Bayside (NSW)","electorate":"Kingsford Smith","type":"Delivery Area","remoteness":"Major Cities of Australia","lat":-33.969,"lng":151.24,"localityCount":9},{"code":"2037","country":"au","state":"NSW","stateFull":"New South Wales","locality":"Forest Lodge","localities":["Forest Lodge","Glebe"],"lga":"Sydney","electorate":"Sydney","type":"Delivery Area","remoteness":"Major Cities of Australia","lat":-33.88396,"lng":151.1815,"localityCount":2},{"code":"2038","country":"au","state":"NSW","stateFull":"New South Wales","locality":"Annandale","localities":["Annandale"],"lga":"Sydney","electorate":"Grayndler","type":"Delivery Area","remoteness":"Major Cities of Australia","lat":-33.8824062,"lng":151.1723645,"localityCount":1},{"code":"2039","country":"au","state":"NSW","stateFull":"New South Wales","locality":"Rozelle","localities":["Rozelle"],"lga":"Inner West","electorate":"Grayndler","type":"Delivery Area","remoteness":"Major Cities of Australia","lat":-33.8661553,"lng":151.1738213,"localityCount":1},{"code":"2040","country":"au","state":"NSW","stateFull":"New South Wales","locality":"Leichhardt","localities":["Leichhardt","Lilyfield"],"lga":"Inner West","electorate":"Grayndler","type":"Delivery Area","remoteness":"Major Cities of Australia","lat":-33.8837222,"lng":151.157028,"localityCount":2},{"code":"2041","country":"au","state":"NSW","stateFull":"New South Wales","locality":"Balmain","localities":["Balmain","Balmain East","Birchgrove"],"lga":"Inner West","electorate":"Grayndler","type":"Delivery Area","remoteness":"Major Cities of Australia","lat":-33.85895,"lng":151.17906,"localityCount":3},{"code":"2042","country":"au","state":"NSW","stateFull":"New South Wales","locality":"Enmore","localities":["Enmore","Newtown"],"lga":"Sydney","electorate":"Grayndler","type":"Delivery Area","remoteness":"Major Cities of Australia","lat":-33.90067,"lng":151.16768,"localityCount":2},{"code":"2043","country":"au","state":"NSW","stateFull":"New South Wales","locality":"Erskineville","localities":["Erskineville"],"lga":"Sydney","electorate":"Sydney","type":"Delivery Area","remoteness":"Major Cities of Australia","lat":-33.9023649,"lng":151.1854757,"localityCount":1},{"code":"2044","country":"au","state":"NSW","stateFull":"New South Wales","locality":"St Peters","localities":["St Peters","St Peters Dc","Sydenham","Tempe"],"lga":"Sydney","electorate":"Grayndler","type":"Delivery Area","remoteness":"Major Cities of Australia","lat":-33.9155155,"lng":151.1746184,"localityCount":4},{"code":"2045","country":"au","state":"NSW","stateFull":"New South Wales","locality":"Haberfield","localities":["Haberfield"],"lga":"Canada Bay","electorate":"Grayndler","type":"Delivery Area","remoteness":"Major Cities of Australia","lat":-33.8786088,"lng":151.1374068,"localityCount":1},{"code":"2046","country":"au","state":"NSW","stateFull":"New South Wales","locality":"Abbotsford","localities":["Abbotsford","Canada Bay","Chiswick","Five Dock","Rodd Point","Russell Lea","Wareemba"],"lga":"Canada Bay","electorate":"Reid","type":"Delivery Area","remoteness":"Major Cities of Australia","lat":-33.85215,"lng":151.12726,"localityCount":7},{"code":"2047","country":"au","state":"NSW","stateFull":"New South Wales","locality":"Drummoyne","localities":["Drummoyne"],"lga":"Canada Bay","electorate":"Reid","type":"Delivery Area","remoteness":"Major Cities of Australia","lat":-33.8523805,"lng":151.1548847,"localityCount":1},{"code":"2048","country":"au","state":"NSW","stateFull":"New South Wales","locality":"Stanmore","localities":["Stanmore","Westgate"],"lga":"Inner West","electorate":"Grayndler","type":"Delivery Area","remoteness":"Major Cities of Australia","lat":-33.8920561,"lng":151.165081,"localityCount":2},{"code":"2049","country":"au","state":"NSW","stateFull":"New South Wales","locality":"Lewisham","localities":["Lewisham","Petersham","Petersham North"],"lga":"Inner West","electorate":"Grayndler","type":"Delivery Area","remoteness":"Major Cities of Australia","lat":-33.8949,"lng":151.144415,"localityCount":3},{"code":"2050","country":"au","state":"NSW","stateFull":"New South Wales","locality":"Camperdown","localities":["Camperdown","Missenden Road"],"lga":"Inner West","electorate":"Sydney","type":"Delivery Area","remoteness":"Major Cities of Australia","lat":-33.8899117,"lng":151.1767348,"localityCount":2},