[{"code":"0200","locality":"ANU","localities":["ANU","Australian National University"],"localityCount":2,"state":"ACT","stateFull":"Australian Capital Territory","country":"au","electorate":"Durack","type":"Delivery Area","lat":-35.2777,"lng":149.119},{"code":"0800","locality":"DARWIN","localities":["DARWIN","DARWIN CITY"],"localityCount":2,"state":"NT","stateFull":"Northern Territory","country":"au","electorate":"Solomon","type":"Delivery Area","lat":-12.458684,"lng":130.83668},{"code":"0801","locality":"DARWIN","localities":["DARWIN"],"localityCount":1,"state":"NT","stateFull":"Northern Territory","country":"au","electorate":"Lingiari","type":"Delivery Area","lat":-12.458684,"lng":130.83668},{"code":"0803","locality":"WAGAIT BEACH","localities":["WAGAIT BEACH"],"localityCount":1,"state":"NT","stateFull":"Northern Territory","country":"au","type":"Post Office Boxes","lat":-12.433991,"lng":130.745908},{"code":"0804","locality":"PARAP","localities":["PARAP"],"localityCount":1,"state":"NT","stateFull":"Northern Territory","country":"au","electorate":"Durack","type":"Delivery Area","lat":-12.428017,"lng":130.873315},{"code":"0810","locality":"ALAWA","localities":["ALAWA","BRINKIN","CASUARINA","COCONUT GROVE","JINGILI","LEE POINT","LYONS","MILLNER","MOIL","MUIRHEAD","NAKARA","NIGHTCLIFF","RAPID CREEK","TIWI","WAGAMAN","WANGURI"],"localityCount":16,"state":"NT","stateFull":"Northern Territory","country":"au","electorate":"Solomon","type":"Delivery Area","lat":-12.381806,"lng":130.866242},{"code":"0811","locality":"CASUARINA","localities":["CASUARINA"],"localityCount":1,"state":"NT","stateFull":"Northern Territory","country":"au","electorate":"Durack","type":"Delivery Area","lat":-12.381806,"lng":130.866242},{"code":"0812","locality":"ANULA","localities":["ANULA","BUFFALO CREEK","HOLMES","KARAMA","LEANYER","MALAK","MARRARA","NORTHLAKES","SANDERSON","WOODLEIGH GARDENS","WULAGI"],"localityCount":11,"state":"NT","stateFull":"Northern Territory","country":"au","electorate":"Solomon","type":"Delivery Area","lat":-12.391249,"lng":130.89047},{"code":"0813","locality":"KARAMA","localities":["KARAMA","SANDERSON"],"localityCount":2,"state":"NT","stateFull":"Northern Territory","country":"au","electorate":"Durack","type":"Post Office Boxes","lat":-12.404778,"lng":130.916098},{"code":"0814","locality":"NIGHTCLIFF","localities":["NIGHTCLIFF"],"localityCount":1,"state":"NT","stateFull":"Northern Territory","country":"au","electorate":"Durack","type":"Delivery Area","lat":-12.381806,"lng":130.866242},{"code":"0815","locality":"CHARLES DARWIN UNIVERSITY","localities":["CHARLES DARWIN UNIVERSITY"],"localityCount":1,"state":"NT","stateFull":"Northern Territory","country":"au","electorate":"Solomon","type":"Delivery Area","lat":-12.3718,"lng":130.869},{"code":"0820","locality":"BAGOT","localities":["BAGOT","BAYVIEW","CHARLES DARWIN","COONAWARRA","CULLEN BAY","DARWIN DC","DARWIN INTERNATIONAL AIRPORT","DARWIN MC","EAST POINT","EATON","FANNIE BAY","LARRAKEYAH","LUDMILLA","PARAP","RAAF BASE DARWIN","STUART PARK","THE GARDENS","THE NARROWS","WINNELLIE","WOOLNER"],"localityCount":20,"state":"NT","stateFull":"Northern Territory","country":"au","electorate":"Solomon","type":"Delivery Area","lat":-12.428017,"lng":130.873315},{"code":"0821","locality":"WINNELLIE","localities":["WINNELLIE"],"localityCount":1,"state":"NT","stateFull":"Northern Territory","country":"au","electorate":"Lingiari","type":"Delivery Area","lat":-13.643283,"lng":136.947051},{"code":"0822","locality":"ACACIA HILLS","localities":["ACACIA HILLS","ANGURUGU","ANINDILYAKWA","ANNIE RIVER","BATHURST ISLAND","BEES CREEK","BELYUEN","BLACK JUNGLE","BLACKMORE","BORDER STORE","BURRUNDIE","BYNOE","BYNOE HARBOUR","CAMP CREEK","CHANNEL ISLAND","CHARLES DARWIN","CHARLOTTE","CLARAVALE","COBOURG","COLLETT CREEK","COOMALIE CREEK","COX PENINSULA","CROKER ISLAND","DALY","DALY RIVER","DARWIN MC","DARWIN RIVER DAM","DELISSAVILLE","DOUGLAS-DALY","EAST ARM","EAST ARNHEM","ELRUNDIE","EVA VALLEY","FINNISS VALLEY","FLEMING","FLY CREEK","FREDS PASS","GALIWINKU","GLYDE POINT","GOULBOURN ISLAND","GOULBURN ISLAND","GUNBALANYA","GUNN POINT","HAYES CREEK","HIDDEN VALLEY","HOTHAM","HUGHES","KAKADU","KOOLPINYAH","LAKE BENNETT","LAMBELLS LAGOON","LITCHFIELD PARK","LIVINGSTONE","LLOYD CREEK","MANDORAH","MANINGRIDA","MAPURU","MARANUNGA","MARGARET RIVER","MARRAKAI","MCMINNS LAGOON","MICKET CREEK","MICKETT CREEK","MIDDLE POINT","MILIKAPITI","MILINGIMBI","MILLWOOD","MILYAKBURRA","MINJILANG","MOUNT BUNDEY","MURRUMUJUK","NAUIYU","NEMARLUK","NGANMARRIYANGA","NGUIU","NUMBULWAR","NUMBURINDI","OENPELLI","PEPPIMENARTI","PIRLANGIMPI","POINT STEPHENS","POINT STUART","PULARUMPI","PULUMPA","RAKULA","RAMINGINING","ROBIN FALLS","RUM JUNGLE","SANDPALMS ROADHOUSE","SOUTHPORT","STAPLETON","THAMARRURR","TIPPERARY","TIVENDALE","TIWI ISLANDS","TORTILLA FLATS","TUMBLING WATERS","UMBAKUMBA","VERNON ISLANDS","VIRGINIA","WADEYE","WAGAIT BEACH","WAK WAK","WARRUWI","WEDDELL","WEST ARNHEM","WICKHAM","WINNELLIE","WISHART","WOOLANING","WURRUMIYANGA"],"localityCount":111,"state":"NT","stateFull":"Northern Territory","country":"au","electorate":"Solomon","type":"Delivery Area","lat":-11.75842,"lng":130.62543},{"code":"0828","locality":"BERRIMAH","localities":["BERRIMAH","KNUCKEY LAGOON"],"localityCount":2,"state":"NT","stateFull":"Northern Territory","country":"au","electorate":"Solomon","type":"Delivery Area","lat":-12.432024,"lng":130.932068},{"code":"0829","locality":"HOLTZE","localities":["HOLTZE","PINELANDS"],"localityCount":2,"state":"NT","stateFull":"Northern Territory","country":"au","electorate":"Solomon","type":"Delivery Area","lat":-12.457633,"lng":130.959767},{"code":"0830","locality":"ARCHER","localities":["ARCHER","DRIVER","DURACK","FARRAR","GRAY","MARLOW LAGOON","MOULDEN","PALMERSTON","SHOAL BAY","WOODROFFE","YARRAWONGA"],"localityCount":11,"state":"NT","stateFull":"Northern Territory","country":"au","electorate":"Solomon","type":"Delivery Area","lat":-12.521396,"lng":130.958077},{"code":"0831","locality":"PALMERSTON","localities":["PALMERSTON"],"localityCount":1,"state":"NT","stateFull":"Northern Territory","country":"au","electorate":"Solomon","type":"Delivery Area","lat":-12.475071,"lng":130.974879},{"code":"0832","locality":"BAKEWELL","localities":["BAKEWELL","BELLAMACK","GUNN","JOHNSTON","MITCHELL","ROSEBERY","ROSEBERY HEIGHTS","ZUCCOLI"],"localityCount":8,"state":"NT","stateFull":"Northern Territory","country":"au","electorate":"Solomon","type":"Delivery Area","lat":-12.496847,"lng":130.993655},{"code":"0834","locality":"VIRGINIA","localities":["VIRGINIA"],"localityCount":1,"state":"NT","stateFull":"Northern Territory","country":"au","electorate":"Lingiari","type":"Delivery Area","lat":-12.546865,"lng":131.023487},{"code":"0835","locality":"Coolalinga","localities":["Coolalinga","HOWARD SPRINGS","VIRGINIA"],"localityCount":3,"state":"NT","stateFull":"Northern Territory","country":"au","electorate":"Lingiari","type":"Delivery Area","lat":-12.5231,"lng":131.0415},{"code":"0836","locality":"GIRRAWEEN","localities":["GIRRAWEEN","HERBERT","HUMPTY DOO"],"localityCount":3,"state":"NT","stateFull":"Northern Territory","country":"au","electorate":"Lingiari","type":"Delivery Area","lat":-12.5255,"lng":131.0962},{"code":"0837","locality":"MANTON","localities":["MANTON","NOONAMAH"],"localityCount":2,"state":"NT","stateFull":"Northern Territory","country":"au","electorate":"Lingiari","type":"Delivery Area","lat":-12.704767,"lng":131.016647},{"code":"0838","locality":"BERRY SPRINGS","localities":["BERRY SPRINGS"],"localityCount":1,"state":"NT","stateFull":"Northern Territory","country":"au","electorate":"Lingiari","type":"Delivery Area","lat":-12.718781,"lng":131.006735},{"code":"0839","locality":"COOLALINGA","localities":["COOLALINGA"],"localityCount":1,"state":"NT","stateFull":"Northern Territory","country":"au","electorate":"Lingiari","type":"Delivery Area","lat":-12.520011,"lng":131.040202},{"code":"0840","locality":"DUNDEE BEACH","localities":["DUNDEE BEACH","DUNDEE DOWNS","DUNDEE FOREST"],"localityCount":3,"state":"NT","stateFull":"Northern Territory","country":"au","electorate":"Lingiari","type":"Delivery Area","lat":-12.724513,"lng":130.352939},{"code":"0841","locality":"DARWIN RIVER","localities":["DARWIN RIVER"],"localityCount":1,"state":"NT","stateFull":"Northern Territory","country":"au","electorate":"Lingiari","type":"Delivery Area","lat":-12.819229,"lng":130.969862},{"code":"0845","locality":"BATCHELOR","localities":["BATCHELOR"],"localityCount":1,"state":"NT","stateFull":"Northern Territory","country":"au","electorate":"Lingiari","type":"Delivery Area","lat":-13.045118,"lng":131.038475},{"code":"0846","locality":"ADELAIDE RIVER","localities":["ADELAIDE RIVER"],"localityCount":1,"state":"NT","stateFull":"Northern Territory","country":"au","electorate":"Lingiari","type":"Delivery Area","lat":-13.210299,"lng":131.095002},{"code":"0847","locality":"PINE CREEK","localities":["PINE CREEK"],"localityCount":1,"state":"NT","stateFull":"Northern Territory","country":"au","electorate":"Lingiari","type":"Delivery Area","lat":-14.012122,"lng":131.759154},{"code":"0850","locality":"COSSACK","localities":["COSSACK","EMUNGALAN","KATHERINE","KATHERINE EAST","KATHERINE SOUTH","LANSDOWNE"],"localityCount":6,"state":"NT","stateFull":"Northern Territory","country":"au","electorate":"Lingiari","type":"Delivery Area","lat":-14.463691,"lng":132.172104},{"code":"0851","locality":"KATHERINE","localities":["KATHERINE"],"localityCount":1,"state":"NT","stateFull":"Northern Territory","country":"au","electorate":"Lingiari","type":"Delivery Area","lat":-15.711424,"lng":137.050719},{"code":"0852","locality":"ARNOLD","localities":["ARNOLD","BAINES","BARUNGA","BESWICK","BESWICK CREEK","BINJARI","BIRDUM","BRADSHAW","BUCHANAN","BULMAN WEEMOL","CRESWELL","DAGURAGU","DALY WATERS","DELAMERE","DUNMARRA","EDITH","EDITH RIVER","ELSEY","ELSEY STATION","FLORINA","FLYING FOX","GREGORY","GULUNG MARDRULK","GURINDJI","HELEN SPRINGS STATION","JILKMINGGAN","KALKARINDJI","KALKARINGI","KATHERINE","LAJAMANU","LARRIMAH","LIMMEN","MANBULLOO","MARANBOY","MATARANKA","MCARTHUR","MINIYERI","MINIYERRI","NGUKURR","NITJPURRU","NITMILUK","NUMBULWAR","NUTWOOD DOWNS","PELLEW ISLANDS","PIGEON HOLE","ROBINSON RIVER","STURT PLATEAU","TANAMI EAST","TIMBER CREEK","TOP SPRINGS","URALLA","VENN","VICTORIA RIVER","VICTORIA RIVER DOWNS","WARUMUNGU","WAVE HILL","WILTON","WUGULARR","YARRALIN"],"localityCount":59,"state":"NT","stateFull":"Northern Territory","country":"au","electorate":"Lingiari","type":"Delivery Area","lat":-16.452589,"lng":130.841866},{"code":"0853","locality":"TINDAL","localities":["TINDAL","TINDAL RAAF"],"localityCount":2,"state":"NT","stateFull":"Northern Territory","country":"au","electorate":"Lingiari","type":"Delivery Area","lat":-14.531134,"lng":132.379122},{"code":"0854","locality":"BORROLOOLA","localities":["BORROLOOLA","KING ASH BAY"],"localityCount":2,"state":"NT","stateFull":"Northern Territory","country":"au","electorate":"Lingiari","type":"Delivery Area","lat":-16.503809,"lng":136.424191},{"code":"0860","locality":"TENNANT CREEK","localities":["TENNANT CREEK"],"localityCount":1,"state":"NT","stateFull":"Northern Territory","country":"au","electorate":"Lingiari","type":"Delivery Area","lat":-19.641301,"lng":134.173599},{"code":"0861","locality":"BRUNCHILLY","localities":["BRUNCHILLY","TENNANT CREEK"],"localityCount":2,"state":"NT","stateFull":"Northern Territory","country":"au","electorate":"Durack","type":"Delivery Area","lat":-18.874571,"lng":134.500504},{"code":"0862","locality":"AVON DOWNS","localities":["AVON DOWNS","CALVERT","CRESSWELL DOWNS","ELLIOTT","HELEN SPRINGS","MUCKATY STATION","NEWCASTLE WATERS","NICHOLSON","PAMAYU","PHILLIP CREEK STATION","RENNER SPRINGS","TABLELANDS","TENNANT CREEK","THREE WAYS","WARREGO","WOLLOGORANG STATION","WYCLIFFE WELL"],"localityCount":17,"state":"NT","stateFull":"Northern Territory","country":"au","electorate":"Lingiari","type":"Delivery Area","lat":-18.251528,"lng":134.463153},{"code":"0870","locality":"ALICE SPRINGS","localities":["ALICE SPRINGS","ARALUEN","BRAITLING","CICCONE","DESERT SPRINGS","EAST SIDE","GILLEN","SADADEEN","STUART","THE GAP","WHITE GUMS"],"localityCount":11,"state":"NT","stateFull":"Northern Territory","country":"au","electorate":"Lingiari","type":"Delivery Area","lat":-23.702291,"lng":133.86314},{"code":"0871","locality":"ALICE SPRINGS","localities":["ALICE SPRINGS"],"localityCount":1,"state":"NT","stateFull":"Northern Territory","country":"au","electorate":"Lingiari","type":"Delivery Area","lat":-21.949513,"lng":131.298809},{"code":"0872","locality":"AHERRENGE","localities":["AHERRENGE","ALI CURUNG","ALICE SPRINGS","AMATA","AMOONGUNA","AMPILATWATJA","ANANGU PITJANTJATJARA YANKUNYTJATJARA","ANATYE","ANMATJERE","ANTEWENEGERRDE","AREYONGA","ATITJERE","AYERS RANGE SOUTH","AYERS ROCK","BARROW CREEK","BURT PLAIN","CANTEEN CREEK","CHILLA WELL","COSTELLO","DAVENPORT","DE ROSE HILL","DOCKER RIVER","ENGAWALA","ERLDUNDA","ERNABELLA","ERNABELLA (PUKATJA)","FINKE","FREGON","GHAN","GIBSON DESERT NORTH","GIBSON DESERT SOUTH","HAASTS BLUFF","HALE","HART","HART RANGE","HERMANNSBURG","HUGH","IMAMPA","IMANPA","INDULKANA","INDULKANA (IWANTJA)","ININTI STORE","IRRUNYTJU","IWANTJA","JAY CREEK","KALKA","KALTJITI","KALTUKATJARA","KANPA","KANPI","KINGS CREEK STATION","KINTORE","KIWIRRKURRA","KULGERA","KUNPARRKA","LAKE MACKAY","LAMBINA","LARAMBA","MACDONNELL RANGE","MANTAMARU","MEREENIE","MIMILI","MOUNT LIEBIG","MOUNT ZEIL","MULGA BORE","MURPUTJA","MURPUTJA HOMELANDS","MUTITJULU","NAMATJIRA","NAPPERBY STATION","NGAANYATJARRA-GILES","NYAPARI","NYIRRIPI","PAPULANKUTJA","PAPUNYA","PATJARR","PETERMANN","PIPALYATJARA","PITJANTJATJARA HOMELANDS","PUKATJA","SANDOVER","SANTA TERESA","SIMPSON","TANAMI","TARA","TELEGRAPH STATION","THANGKENHARENGE","TI TREE","TIEYON","TITJIKALA","TJIRRKARLI","TJUKURLA","ULURU","UMPANGARA","UMUWA","URAPUNTJA","WALLACE ROCKHOLE","WANARN","WARAKURNA","WATARRU","WATINUMA","WILLOWRA","WILORA","WINGELLINA","WUTUNUGURRA","YUELAMU","YUENDUMU","YULARA","YUNYARINYI"],"localityCount":109,"state":"NT","stateFull":"Northern Territory","country":"au","electorate":"Lingiari","type":"Delivery Area","lat":-21.949513,"lng":131.298809},{"code":"0873","locality":"AMOONGUNA","localities":["AMOONGUNA","ARUMBERA","CONNELLAN","HEAVITREE GAP CPA","ILPARPA","KILGARIFF","ROSS"],"localityCount":7,"state":"NT","stateFull":"Northern Territory","country":"au","electorate":"Lingiari","type":"Delivery Area","lat":-23.744714,"lng":133.905011},{"code":"0874","locality":"IRLPME","localities":["IRLPME","MOUNT JOHNS","UNDOOLYA"],"localityCount":3,"state":"NT","stateFull":"Northern Territory","country":"au","electorate":"Lingiari","type":"Delivery Area","lat":-23.646903,"lng":133.864759},{"code":"0875","locality":"FLYNN","localities":["FLYNN","LARAPINTA"],"localityCount":2,"state":"NT","stateFull":"Northern Territory","country":"au","electorate":"Lingiari","type":"Delivery Area","lat":-23.713504,"lng":133.83542},{"code":"0880","locality":"GAPUWIYAK","localities":["GAPUWIYAK","GOVE","GUNYANGARA","NHULUNBUY","YIRRKALA"],"localityCount":5,"state":"NT","stateFull":"Northern Territory","country":"au","electorate":"Lingiari","type":"Delivery Area","lat":-12.505574,"lng":135.795429},{"code":"0881","locality":"NHULUNBUY","localities":["NHULUNBUY"],"localityCount":1,"state":"NT","stateFull":"Northern Territory","country":"au","electorate":"Durack","type":"Delivery Area","lat":-11.670366,"lng":136.824863},{"code":"0885","locality":"ALYANGULA","localities":["ALYANGULA"],"localityCount":1,"state":"NT","stateFull":"Northern Territory","country":"au","electorate":"Lingiari","type":"Delivery Area","lat":-13.850786,"lng":136.420066},{"code":"0886","locality":"JABIRU","localities":["JABIRU"],"localityCount":1,"state":"NT","stateFull":"Northern Territory","country":"au","electorate":"Lingiari","type":"Delivery Area","lat":-13.13118,"lng":132.563373},{"code":"0906","locality":"WINNELLIE","localities":["WINNELLIE"],"localityCount":1,"state":"NT","stateFull":"Northern Territory","country":"au","electorate":"Durack","type":"Delivery Area","lat":-13.643283,"lng":136.947051},{"code":"0907","locality":"WINNELLIE","localities":["WINNELLIE"],"localityCount":1,"state":"NT","stateFull":"Northern Territory","country":"au","electorate":"Durack","type":"Delivery Area","lat":-13.643283,"lng":136.947051},{"code":"0909","locality":"CHARLES DARWIN UNIVERSITY","localities":["CHARLES DARWIN UNIVERSITY","UNIVERSITY"],"localityCount":2,"state":"NT","stateFull":"Northern Territory","country":"au","electorate":"Durack","type":"Delivery Area","lat":-12.3718,"lng":130.869},{"code":"1001","locality":"SYDNEY","localities":["SYDNEY"],"localityCount":1,"state":"NSW","stateFull":"New South Wales","country":"au","electorate":"Sydney","type":"LVR","lat":-33.794883,"lng":151.268071},{"code":"1002","locality":"SYDNEY","localities":["SYDNEY"],"localityCount":1,"state":"NSW","stateFull":"New South Wales","country":"au","electorate":"Sydney","type":"LVR","lat":-33.794883,"lng":151.268071},{"code":"1003","locality":"SYDNEY","localities":["SYDNEY"],"localityCount":1,"state":"NSW","stateFull":"New South Wales","country":"au","electorate":"Sydney","type":"LVR","lat":-33.794883,"lng":151.268071},{"code":"1004","locality":"SYDNEY","localities":["SYDNEY"],"localityCount":1,"state":"NSW","stateFull":"New South Wales","country":"au","electorate":"Sydney","type":"LVR","lat":-33.794883,"lng":151.268071},{"code":"1005","locality":"SYDNEY","localities":["SYDNEY"],"localityCount":1,"state":"NSW","stateFull":"New South Wales","country":"au","electorate":"Sydney","type":"LVR","lat":-33.794883,"lng":151.268071},{"code":"1006","locality":"SYDNEY","localities":["SYDNEY"],"localityCount":1,"state":"NSW","stateFull":"New South Wales","country":"au","electorate":"Sydney","type":"LVR","lat":-33.794883,"lng":151.268071},{"code":"1007","locality":"SYDNEY","localities":["SYDNEY"],"localityCount":1,"state":"NSW","stateFull":"New South Wales","country":"au","electorate":"Sydney","type":"LVR","lat":-33.794883,"lng":151.268071},{"code":"1008","locality":"SYDNEY","localities":["SYDNEY"],"localityCount":1,"state":"NSW","stateFull":"New South Wales","country":"au","electorate":"Sydney","type":"LVR","lat":-33.794883,"lng":151.268071},{"code":"1009","locality":"SYDNEY","localities":["SYDNEY"],"localityCount":1,"state":"NSW","stateFull":"New South Wales","country":"au","electorate":"Sydney","type":"LVR","lat":-33.794883,"lng":151.268071},{"code":"1010","locality":"SYDNEY","localities":["SYDNEY"],"localityCount":1,"state":"NSW","stateFull":"New South Wales","country":"au","electorate":"Sydney","type":"LVR","lat":-33.794883,"lng":151.268071},{"code":"1020","locality":"SYDNEY","localities":["SYDNEY"],"localityCount":1,"state":"NSW","stateFull":"New South Wales","country":"au","electorate":"Sydney","type":"LVR","lat":-33.794883,"lng":151.268071},{"code":"1021","locality":"SYDNEY","localities":["SYDNEY"],"localityCount":1,"state":"NSW","stateFull":"New South Wales","country":"au","electorate":"Sydney","type":"LVR","lat":-33.794883,"lng":151.268071},{"code":"1022","locality":"SYDNEY","localities":["SYDNEY"],"localityCount":1,"state":"NSW","stateFull":"New South Wales","country":"au","electorate":"Sydney","type":"LVR","lat":-33.794883,"lng":151.268071},{"code":"1023","locality":"SYDNEY","localities":["SYDNEY"],"localityCount":1,"state":"NSW","stateFull":"New South Wales","country":"au","electorate":"Sydney","type":"LVR","lat":-33.794883,"lng":151.268071},{"code":"1025","locality":"SYDNEY","localities":["SYDNEY"],"localityCount":1,"state":"NSW","stateFull":"New South Wales","country":"au","electorate":"Sydney","type":"LVR","lat":-33.794883,"lng":151.268071},{"code":"1026","locality":"SYDNEY","localities":["SYDNEY"],"localityCount":1,"state":"NSW","stateFull":"New South Wales","country":"au","electorate":"Sydney","type":"LVR","lat":-33.794883,"lng":151.268071},{"code":"1027","locality":"SYDNEY","localities":["SYDNEY"],"localityCount":1,"state":"NSW","stateFull":"New South Wales","country":"au","electorate":"Sydney","type":"LVR","lat":-33.794883,"lng":151.268071},{"code":"1028","locality":"SYDNEY","localities":["SYDNEY"],"localityCount":1,"state":"NSW","stateFull":"New South Wales","country":"au","electorate":"Sydney","type":"LVR","lat":-33.794883,"lng":151.268071},{"code":"1029","locality":"SYDNEY","localities":["SYDNEY"],"localityCount":1,"state":"NSW","stateFull":"New South Wales","country":"au","electorate":"Sydney","type":"LVR","lat":-33.794883,"lng":151.268071},{"code":"1030","locality":"SYDNEY","localities":["SYDNEY"],"localityCount":1,"state":"NSW","stateFull":"New South Wales","country":"au","electorate":"Sydney","type":"LVR","lat":-33.794883,"lng":151.268071},{"code":"1031","locality":"SYDNEY","localities":["SYDNEY"],"localityCount":1,"state":"NSW","stateFull":"New South Wales","country":"au","electorate":"Sydney","type":"LVR","lat":-33.794883,"lng":151.268071},{"code":"1032","locality":"SYDNEY","localities":["SYDNEY"],"localityCount":1,"state":"NSW","stateFull":"New South Wales","country":"au","electorate":"Sydney","type":"LVR","lat":-33.662834,"lng":150.874182},{"code":"1033","locality":"SYDNEY","localities":["SYDNEY"],"localityCount":1,"state":"NSW","stateFull":"New South Wales","country":"au","electorate":"Sydney","type":"LVR","lat":-33.794883,"lng":151.268071},{"code":"1034","locality":"SYDNEY","localities":["SYDNEY"],"localityCount":1,"state":"NSW","stateFull":"New South Wales","country":"au","electorate":"Sydney","type":"LVR","lat":-33.794883,"lng":151.268071},{"code":"1035","locality":"SYDNEY","localities":["SYDNEY"],"localityCount":1,"state":"NSW","stateFull":"New South Wales","country":"au","electorate":"Sydney","type":"LVR","lat":-33.794883,"lng":151.268071},{"code":"1036","locality":"SYDNEY","localities":["SYDNEY"],"localityCount":1,"state":"NSW","stateFull":"New South Wales","country":"au","electorate":"Sydney","type":"LVR","lat":-33.794883,"lng":151.268071},{"code":"1037","locality":"SYDNEY","localities":["SYDNEY"],"localityCount":1,"state":"NSW","stateFull":"New South Wales","country":"au","electorate":"Sydney","type":"LVR","lat":-33.794883,"lng":151.268071},{"code":"1038","locality":"SYDNEY","localities":["SYDNEY"],"localityCount":1,"state":"NSW","stateFull":"New South Wales","country":"au","electorate":"Sydney","type":"LVR","lat":-33.794883,"lng":151.268071},{"code":"1039","locality":"SYDNEY","localities":["SYDNEY"],"localityCount":1,"state":"NSW","stateFull":"New South Wales","country":"au","electorate":"Sydney","type":"LVR","lat":-33.794883,"lng":151.268071},{"code":"1040","locality":"SYDNEY","localities":["SYDNEY"],"localityCount":1,"state":"NSW","stateFull":"New South Wales","country":"au","electorate":"Sydney","type":"LVR","lat":-33.794883,"lng":151.268071},{"code":"1041","locality":"SYDNEY","localities":["SYDNEY"],"localityCount":1,"state":"NSW","stateFull":"New South Wales","country":"au","electorate":"Sydney","type":"LVR","lat":-33.794883,"lng":151.268071},{"code":"1042","locality":"SYDNEY","localities":["SYDNEY"],"localityCount":1,"state":"NSW","stateFull":"New South Wales","country":"au","electorate":"Sydney","type":"LVR","lat":-33.794883,"lng":151.268071},{"code":"1043","locality":"SYDNEY","localities":["SYDNEY"],"localityCount":1,"state":"NSW","stateFull":"New South Wales","country":"au","electorate":"Sydney","type":"LVR","lat":-33.794883,"lng":151.268071},{"code":"1044","locality":"SYDNEY","localities":["SYDNEY"],"localityCount":1,"state":"NSW","stateFull":"New South Wales","country":"au","electorate":"Sydney","type":"LVR","lat":-33.794883,"lng":151.268071},{"code":"1045","locality":"SYDNEY","localities":["SYDNEY"],"localityCount":1,"state":"NSW","stateFull":"New South Wales","country":"au","electorate":"Sydney","type":"LVR","lat":-33.794883,"lng":151.268071},{"code":"1046","locality":"SYDNEY","localities":["SYDNEY"],"localityCount":1,"state":"NSW","stateFull":"New South Wales","country":"au","electorate":"Sydney","type":"LVR","lat":-33.794883,"lng":151.268071},{"code":"1100","locality":"SYDNEY","localities":["SYDNEY"],"localityCount":1,"state":"NSW","stateFull":"New South Wales","country":"au","electorate":"Sydney","type":"LVR","lat":-33.794883,"lng":151.268071},{"code":"1101","locality":"SYDNEY","localities":["SYDNEY"],"localityCount":1,"state":"NSW","stateFull":"New South Wales","country":"au","electorate":"Sydney","type":"LVR","lat":-33.794883,"lng":151.268071},{"code":"1105","locality":"SYDNEY","localities":["SYDNEY"],"localityCount":1,"state":"NSW","stateFull":"New South Wales","country":"au","electorate":"Sydney","type":"LVR","lat":-33.794883,"lng":151.268071},{"code":"1106","locality":"SYDNEY","localities":["SYDNEY"],"localityCount":1,"state":"NSW","stateFull":"New South Wales","country":"au","electorate":"Sydney","type":"LVR","lat":-33.794883,"lng":151.268071},{"code":"1107","locality":"SYDNEY","localities":["SYDNEY"],"localityCount":1,"state":"NSW","stateFull":"New South Wales","country":"au","electorate":"Sydney","type":"LVR","lat":-33.794883,"lng":151.268071},{"code":"1108","locality":"SYDNEY","localities":["SYDNEY"],"localityCount":1,"state":"NSW","stateFull":"New South Wales","country":"au","electorate":"Sydney","type":"LVR","lat":-33.794883,"lng":151.268071},{"code":"1109","locality":"SYDNEY","localities":["SYDNEY"],"localityCount":1,"state":"NSW","stateFull":"New South Wales","country":"au","electorate":"Sydney","type":"LVR","lat":-33.794883,"lng":151.268071},{"code":"1110","locality":"SYDNEY","localities":["SYDNEY"],"localityCount":1,"state":"NSW","stateFull":"New South Wales","country":"au","electorate":"Sydney","type":"LVR","lat":-33.794883,"lng":151.268071},{"code":"1112","locality":"SYDNEY","localities":["SYDNEY"],"localityCount":1,"state":"NSW","stateFull":"New South Wales","country":"au","electorate":"Sydney","type":"LVR","lat":-33.794883,"lng":151.268071},{"code":"1113","locality":"SYDNEY","localities":["SYDNEY"],"localityCount":1,"state":"NSW","stateFull":"New South Wales","country":"au","electorate":"Sydney","type":"LVR","lat":-33.794883,"lng":151.268071},{"code":"1114","locality":"SYDNEY","localities":["SYDNEY"],"localityCount":1,"state":"NSW","stateFull":"New South Wales","country":"au","electorate":"Sydney","type":"LVR","lat":-33.794883,"lng":151.268071},{"code":"1115","locality":"SYDNEY","localities":["SYDNEY"],"localityCount":1,"state":"NSW","stateFull":"New South Wales","country":"au","electorate":"Sydney","type":"LVR","lat":-33.794883,"lng":151.268071},{"code":"1116","locality":"SYDNEY","localities":["SYDNEY"],"localityCount":1,"state":"NSW","stateFull":"New South Wales","country":"au","electorate":"Sydney","type":"LVR","lat":-33.666729,"lng":150.866145},{"code":"1117","locality":"SYDNEY","localities":["SYDNEY"],"localityCount":1,"state":"NSW","stateFull":"New South Wales","country":"au","electorate":"Sydney","type":"LVR","lat":-33.664575,"lng":150.87022},{"code":"1118","locality":"SYDNEY","localities":["SYDNEY"],"localityCount":1,"state":"NSW","stateFull":"New South Wales","country":"au","electorate":"Sydney","type":"LVR","lat":-33.794883,"lng":151.268071},{"code":"1119","locality":"SYDNEY","localities":["SYDNEY"],"localityCount":1,"state":"NSW","stateFull":"New South Wales","country":"au","electorate":"Sydney","type":"LVR","lat":-33.794883,"lng":151.268071},{"code":"1120","locality":"SYDNEY","localities":["SYDNEY"],"localityCount":1,"state":"NSW","stateFull":"New South Wales","country":"au","electorate":"Sydney","type":"LVR","lat":-33.794883,"lng":151.268071},{"code":"1121","locality":"SYDNEY","localities":["SYDNEY"],"localityCount":1,"state":"NSW","stateFull":"New South Wales","country":"au","electorate":"Sydney","type":"LVR","lat":-33.794883,"lng":151.268071},{"code":"1122","locality":"SYDNEY","localities":["SYDNEY"],"localityCount":1,"state":"NSW","stateFull":"New South Wales","country":"au","electorate":"Sydney","type":"LVR","lat":-33.794883,"lng":151.268071},{"code":"1123","locality":"SYDNEY","localities":["SYDNEY"],"localityCount":1,"state":"NSW","stateFull":"New South Wales","country":"au","electorate":"Sydney","type":"LVR","lat":-33.794883,"lng":151.268071},{"code":"1124","locality":"SYDNEY","localities":["SYDNEY"],"localityCount":1,"state":"NSW","stateFull":"New South Wales","country":"au","electorate":"Sydney","type":"LVR","lat":-33.794883,"lng":151.268071},{"code":"1125","locality":"SYDNEY","localities":["SYDNEY"],"localityCount":1,"state":"NSW","stateFull":"New South Wales","country":"au","electorate":"Sydney","type":"LVR","lat":-33.794883,"lng":151.268071},{"code":"1126","locality":"SYDNEY","localities":["SYDNEY"],"localityCount":1,"state":"NSW","stateFull":"New South Wales","country":"au","electorate":"Sydney","type":"LVR","lat":-33.794883,"lng":151.268071},{"code":"1127","locality":"SYDNEY","localities":["SYDNEY"],"localityCount":1,"state":"NSW","stateFull":"New South Wales","country":"au","electorate":"Sydney","type":"LVR","lat":-33.794883,"lng":151.268071},{"code":"1128","locality":"SYDNEY","localities":["SYDNEY"],"localityCount":1,"state":"NSW","stateFull":"New South Wales","country":"au","electorate":"Sydney","type":"LVR","lat":-33.794883,"lng":151.268071},{"code":"1129","locality":"SYDNEY","localities":["SYDNEY"],"localityCount":1,"state":"NSW","stateFull":"New South Wales","country":"au","electorate":"Sydney","type":"LVR","lat":-33.794883,"lng":151.268071},{"code":"1130","locality":"SYDNEY","localities":["SYDNEY"],"localityCount":1,"state":"NSW","stateFull":"New South Wales","country":"au","electorate":"Sydney","type":"LVR","lat":-33.794883,"lng":151.268071},{"code":"1131","locality":"SYDNEY","localities":["SYDNEY"],"localityCount":1,"state":"NSW","stateFull":"New South Wales","country":"au","electorate":"Sydney","type":"LVR","lat":-33.794883,"lng":151.268071},{"code":"1132","locality":"SYDNEY","localities":["SYDNEY"],"localityCount":1,"state":"NSW","stateFull":"New South Wales","country":"au","electorate":"Sydney","type":"LVR","lat":-33.66279,"lng":150.874265},{"code":"1133","locality":"SYDNEY","localities":["SYDNEY"],"localityCount":1,"state":"NSW","stateFull":"New South Wales","country":"au","electorate":"Sydney","type":"LVR","lat":-33.794883,"lng":151.268071},{"code":"1134","locality":"SYDNEY","localities":["SYDNEY"],"localityCount":1,"state":"NSW","stateFull":"New South Wales","country":"au","electorate":"Sydney","type":"LVR","lat":-33.794883,"lng":151.268071},{"code":"1135","locality":"SYDNEY","localities":["SYDNEY"],"localityCount":1,"state":"NSW","stateFull":"New South Wales","country":"au","electorate":"Sydney","type":"LVR","lat":-33.794883,"lng":151.268071},{"code":"1136","locality":"SYDNEY","localities":["SYDNEY"],"localityCount":1,"state":"NSW","stateFull":"New South Wales","country":"au","electorate":"Sydney","type":"LVR","lat":-33.794883,"lng":151.268071},{"code":"1137","locality":"SYDNEY","localities":["SYDNEY"],"localityCount":1,"state":"NSW","stateFull":"New South Wales","country":"au","electorate":"Sydney","type":"LVR","lat":-33.794883,"lng":151.268071},{"code":"1138","locality":"SYDNEY","localities":["SYDNEY"],"localityCount":1,"state":"NSW","stateFull":"New South Wales","country":"au","electorate":"Sydney","type":"LVR","lat":-33.794883,"lng":151.268071},{"code":"1139","locality":"SYDNEY","localities":["SYDNEY"],"localityCount":1,"state":"NSW","stateFull":"New South Wales","country":"au","electorate":"Sydney","type":"LVR","lat":-33.794883,"lng":151.268071},{"code":"1140","locality":"SYDNEY","localities":["SYDNEY"],"localityCount":1,"state":"NSW","stateFull":"New South Wales","country":"au","electorate":"Sydney","type":"LVR","lat":-33.794883,"lng":151.268071},{"code":"1141","locality":"SYDNEY","localities":["SYDNEY"],"localityCount":1,"state":"NSW","stateFull":"New South Wales","country":"au","electorate":"Sydney","type":"LVR","lat":-33.794883,"lng":151.268071},{"code":"1142","locality":"SYDNEY","localities":["SYDNEY"],"localityCount":1,"state":"NSW","stateFull":"New South Wales","country":"au","electorate":"Sydney","type":"LVR","lat":-33.794883,"lng":151.268071},{"code":"1143","locality":"SYDNEY","localities":["SYDNEY"],"localityCount":1,"state":"NSW","stateFull":"New South Wales","country":"au","electorate":"Sydney","type":"LVR","lat":-33.794883,"lng":151.268071},{"code":"1144","locality":"SYDNEY","localities":["SYDNEY"],"localityCount":1,"state":"NSW","stateFull":"New South Wales","country":"au","electorate":"Sydney","type":"LVR","lat":-33.794883,"lng":151.268071},{"code":"1145","locality":"SYDNEY","localities":["SYDNEY"],"localityCount":1,"state":"NSW","stateFull":"New South Wales","country":"au","electorate":"Sydney","type":"LVR","lat":-33.794883,"lng":151.268071},{"code":"1146","locality":"SYDNEY","localities":["SYDNEY"],"localityCount":1,"state":"NSW","stateFull":"New South Wales","country":"au","electorate":"Sydney","type":"LVR","lat":-33.794883,"lng":151.268071},{"code":"1147","locality":"SYDNEY","localities":["SYDNEY"],"localityCount":1,"state":"NSW","stateFull":"New South Wales","country":"au","electorate":"Sydney","type":"LVR","lat":-33.794883,"lng":151.268071},{"code":"1148","locality":"SYDNEY","localities":["SYDNEY"],"localityCount":1,"state":"NSW","stateFull":"New South Wales","country":"au","electorate":"Sydney","type":"LVR","lat":-33.794883,"lng":151.268071},{"code":"1149","locality":"SYDNEY","localities":["SYDNEY"],"localityCount":1,"state":"NSW","stateFull":"New South Wales","country":"au","electorate":"Sydney","type":"LVR","lat":-33.794883,"lng":151.268071},{"code":"1150","locality":"SYDNEY","localities":["SYDNEY"],"localityCount":1,"state":"NSW","stateFull":"New South Wales","country":"au","electorate":"Sydney","type":"LVR","lat":-33.794883,"lng":151.268071},{"code":"1151","locality":"SYDNEY","localities":["SYDNEY"],"localityCount":1,"state":"NSW","stateFull":"New South Wales","country":"au","electorate":"Sydney","type":"LVR","lat":-33.794883,"lng":151.268071},{"code":"1152","locality":"SYDNEY","localities":["SYDNEY"],"localityCount":1,"state":"NSW","stateFull":"New South Wales","country":"au","electorate":"Sydney","type":"LVR","lat":-33.794883,"lng":151.268071},{"code":"1153","locality":"SYDNEY","localities":["SYDNEY"],"localityCount":1,"state":"NSW","stateFull":"New South Wales","country":"au","electorate":"Sydney","type":"LVR","lat":-33.794883,"lng":151.268071},{"code":"1154","locality":"SYDNEY","localities":["SYDNEY"],"localityCount":1,"state":"NSW","stateFull":"New South Wales","country":"au","electorate":"Sydney","type":"LVR","lat":-33.794883,"lng":151.268071},{"code":"1155","locality":"SYDNEY","localities":["SYDNEY"],"localityCount":1,"state":"NSW","stateFull":"New South Wales","country":"au","electorate":"Sydney","type":"LVR","lat":-33.794883,"lng":151.268071},{"code":"1156","locality":"SYDNEY","localities":["SYDNEY"],"localityCount":1,"state":"NSW","stateFull":"New South Wales","country":"au","electorate":"Sydney","type":"LVR","lat":-33.794883,"lng":151.268071},{"code":"1157","locality":"SYDNEY","localities":["SYDNEY"],"localityCount":1,"state":"NSW","stateFull":"New South Wales","country":"au","electorate":"Sydney","type":"LVR","lat":-33.794883,"lng":151.268071},{"code":"1158","locality":"SYDNEY","localities":["SYDNEY"],"localityCount":1,"state":"NSW","stateFull":"New South Wales","country":"au","electorate":"Sydney","type":"LVR","lat":-33.794883,"lng":151.268071},{"code":"1159","locality":"SYDNEY","localities":["SYDNEY"],"localityCount":1,"state":"NSW","stateFull":"New South Wales","country":"au","electorate":"Sydney","type":"LVR","lat":-33.794883,"lng":151.268071},{"code":"1160","locality":"SYDNEY","localities":["SYDNEY"],"localityCount":1,"state":"NSW","stateFull":"New South Wales","country":"au","electorate":"Sydney","type":"LVR","lat":-33.794883,"lng":151.268071},{"code":"1161","locality":"SYDNEY","localities":["SYDNEY"],"localityCount":1,"state":"NSW","stateFull":"New South Wales","country":"au","electorate":"Sydney","type":"LVR","lat":-33.794883,"lng":151.268071},{"code":"1162","locality":"SYDNEY","localities":["SYDNEY"],"localityCount":1,"state":"NSW","stateFull":"New South Wales","country":"au","electorate":"Sydney","type":"LVR","lat":-33.794883,"lng":151.268071},{"code":"1163","locality":"SYDNEY","localities":["SYDNEY"],"localityCount":1,"state":"NSW","stateFull":"New South Wales","country":"au","electorate":"Sydney","type":"LVR","lat":-33.794883,"lng":151.268071},{"code":"1164","locality":"SYDNEY","localities":["SYDNEY"],"localityCount":1,"state":"NSW","stateFull":"New South Wales","country":"au","electorate":"Sydney","type":"LVR","lat":-33.794883,"lng":151.268071},{"code":"1165","locality":"SYDNEY","localities":["SYDNEY"],"localityCount":1,"state":"NSW","stateFull":"New South Wales","country":"au","electorate":"Sydney","type":"LVR","lat":-33.794883,"lng":151.268071},{"code":"1166","locality":"SYDNEY","localities":["SYDNEY"],"localityCount":1,"state":"NSW","stateFull":"New South Wales","country":"au","electorate":"Sydney","type":"LVR","lat":-33.794883,"lng":151.268071},{"code":"1167","locality":"SYDNEY","localities":["SYDNEY"],"localityCount":1,"state":"NSW","stateFull":"New South Wales","country":"au","electorate":"Sydney","type":"LVR","lat":-33.794883,"lng":151.268071},{"code":"1168","locality":"SYDNEY","localities":["SYDNEY"],"localityCount":1,"state":"NSW","stateFull":"New South Wales","country":"au","electorate":"Sydney","type":"LVR","lat":-33.794883,"lng":151.268071},{"code":"1169","locality":"SYDNEY","localities":["SYDNEY"],"localityCount":1,"state":"NSW","stateFull":"New South Wales","country":"au","electorate":"Sydney","type":"LVR","lat":-33.794883,"lng":151.268071},{"code":"1170","locality":"SYDNEY","localities":["SYDNEY"],"localityCount":1,"state":"NSW","stateFull":"New South Wales","country":"au","electorate":"Sydney","type":"LVR","lat":-33.794883,"lng":151.268071},{"code":"1171","locality":"SYDNEY","localities":["SYDNEY"],"localityCount":1,"state":"NSW","stateFull":"New South Wales","country":"au","electorate":"Sydney","type":"LVR","lat":-33.794883,"lng":151.268071},{"code":"1172","locality":"SYDNEY","localities":["SYDNEY"],"localityCount":1,"state":"NSW","stateFull":"New South Wales","country":"au","electorate":"Sydney","type":"LVR","lat":-33.794883,"lng":151.268071},{"code":"1173","locality":"SYDNEY","localities":["SYDNEY"],"localityCount":1,"state":"NSW","stateFull":"New South Wales","country":"au","electorate":"Sydney","type":"LVR","lat":-33.794883,"lng":151.268071},{"code":"1174","locality":"SYDNEY","localities":["SYDNEY"],"localityCount":1,"state":"NSW","stateFull":"New South Wales","country":"au","electorate":"Sydney","type":"LVR","lat":-33.794883,"lng":151.268071},{"code":"1175","locality":"SYDNEY","localities":["SYDNEY"],"localityCount":1,"state":"NSW","stateFull":"New South Wales","country":"au","electorate":"Sydney","type":"LVR","lat":-33.794883,"lng":151.268071},{"code":"1176","locality":"SYDNEY","localities":["SYDNEY"],"localityCount":1,"state":"NSW","stateFull":"New South Wales","country":"au","electorate":"Sydney","type":"LVR","lat":-33.794883,"lng":151.268071},{"code":"1177","locality":"SYDNEY","localities":["SYDNEY"],"localityCount":1,"state":"NSW","stateFull":"New South Wales","country":"au","electorate":"Sydney","type":"LVR","lat":-33.794883,"lng":151.268071},{"code":"1178","locality":"SYDNEY","localities":["SYDNEY"],"localityCount":1,"state":"NSW","stateFull":"New South Wales","country":"au","electorate":"Sydney","type":"LVR","lat":-33.794883,"lng":151.268071},{"code":"1179","locality":"SYDNEY","localities":["SYDNEY"],"localityCount":1,"state":"NSW","stateFull":"New South Wales","country":"au","electorate":"Sydney","type":"LVR","lat":-33.794883,"lng":151.268071},{"code":"1180","locality":"SYDNEY","localities":["SYDNEY"],"localityCount":1,"state":"NSW","stateFull":"New South Wales","country":"au","electorate":"Sydney","type":"LVR","lat":-33.794883,"lng":151.268071},{"code":"1181","locality":"SYDNEY","localities":["SYDNEY"],"localityCount":1,"state":"NSW","stateFull":"New South Wales","country":"au","electorate":"Sydney","type":"LVR","lat":-33.794883,"lng":151.268071},{"code":"1182","locality":"SYDNEY","localities":["SYDNEY"],"localityCount":1,"state":"NSW","stateFull":"New South Wales","country":"au","electorate":"Sydney","type":"LVR","lat":-33.794883,"lng":151.268071},{"code":"1183","locality":"SYDNEY","localities":["SYDNEY"],"localityCount":1,"state":"NSW","stateFull":"New South Wales","country":"au","electorate":"Sydney","type":"LVR","lat":-33.794883,"lng":151.268071},{"code":"1184","locality":"SYDNEY","localities":["SYDNEY"],"localityCount":1,"state":"NSW","stateFull":"New South Wales","country":"au","electorate":"Sydney","type":"LVR","lat":-33.794883,"lng":151.268071},{"code":"1185","locality":"SYDNEY","localities":["SYDNEY"],"localityCount":1,"state":"NSW","stateFull":"New South Wales","country":"au","electorate":"Sydney","type":"LVR","lat":-33.794883,"lng":151.268071},{"code":"1186","locality":"SYDNEY","localities":["SYDNEY"],"localityCount":1,"state":"NSW","stateFull":"New South Wales","country":"au","electorate":"Sydney","type":"LVR","lat":-33.794883,"lng":151.268071},{"code":"1187","locality":"SYDNEY","localities":["SYDNEY"],"localityCount":1,"state":"NSW","stateFull":"New South Wales","country":"au","electorate":"Sydney","type":"LVR","lat":-33.794883,"lng":151.268071},{"code":"1188","locality":"SYDNEY","localities":["SYDNEY"],"localityCount":1,"state":"NSW","stateFull":"New South Wales","country":"au","electorate":"Sydney","type":"LVR","lat":-33.794883,"lng":151.268071},{"code":"1189","locality":"SYDNEY","localities":["SYDNEY"],"localityCount":1,"state":"NSW","stateFull":"New South Wales","country":"au","electorate":"Sydney","type":"LVR","lat":-33.794883,"lng":151.268071},{"code":"1190","locality":"SYDNEY","localities":["SYDNEY"],"localityCount":1,"state":"NSW","stateFull":"New South Wales","country":"au","electorate":"Sydney","type":"LVR","lat":-33.794883,"lng":151.268071},{"code":"1191","locality":"SYDNEY","localities":["SYDNEY"],"localityCount":1,"state":"NSW","stateFull":"New South Wales","country":"au","electorate":"Sydney","type":"LVR","lat":-33.794883,"lng":151.268071},{"code":"1192","locality":"SYDNEY","localities":["SYDNEY"],"localityCount":1,"state":"NSW","stateFull":"New South Wales","country":"au","electorate":"Sydney","type":"LVR","lat":-34.790684,"lng":147.685283},{"code":"1193","locality":"SYDNEY","localities":["SYDNEY"],"localityCount":1,"state":"NSW","stateFull":"New South Wales","country":"au","electorate":"Sydney","type":"LVR","lat":-33.794883,"lng":151.268071},{"code":"1194","locality":"SYDNEY","localities":["SYDNEY"],"localityCount":1,"state":"NSW","stateFull":"New South Wales","country":"au","electorate":"Sydney","type":"LVR","lat":-33.794883,"lng":151.268071},{"code":"1195","locality":"SYDNEY","localities":["SYDNEY"],"localityCount":1,"state":"NSW","stateFull":"New South Wales","country":"au","electorate":"Sydney","type":"LVR","lat":-33.794883,"lng":151.268071},{"code":"1196","locality":"SYDNEY","localities":["SYDNEY"],"localityCount":1,"state":"NSW","stateFull":"New South Wales","country":"au","electorate":"Sydney","type":"LVR","lat":-33.794883,"lng":151.268071},{"code":"1197","locality":"SYDNEY","localities":["SYDNEY"],"localityCount":1,"state":"NSW","stateFull":"New South Wales","country":"au","electorate":"Sydney","type":"LVR","lat":-33.794883,"lng":151.268071},{"code":"1198","locality":"SYDNEY","localities":["SYDNEY"],"localityCount":1,"state":"NSW","stateFull":"New South Wales","country":"au","electorate":"Sydney","type":"LVR","lat":-33.794883,"lng":151.268071},{"code":"1199","locality":"SYDNEY","localities":["SYDNEY"],"localityCount":1,"state":"NSW","stateFull":"New South Wales","country":"au","electorate":"Sydney","type":"LVR","lat":-33.794883,"lng":151.268071},{"code":"1201","locality":"SYDNEY","localities":["SYDNEY"],"localityCount":1,"state":"NSW","stateFull":"New South Wales","country":"au","electorate":"Sydney","type":"LVR","lat":-33.794883,"lng":151.268071},{"code":"1202","locality":"SYDNEY","localities":["SYDNEY"],"localityCount":1,"state":"NSW","stateFull":"New South Wales","country":"au","electorate":"Sydney","type":"LVR","lat":-33.794883,"lng":151.268071},{"code":"1203","locality":"SYDNEY","localities":["SYDNEY"],"localityCount":1,"state":"NSW","stateFull":"New South Wales","country":"au","electorate":"Sydney","type":"LVR","lat":-33.794883,"lng":151.268071},{"code":"1205","locality":"SYDNEY","localities":["SYDNEY"],"localityCount":1,"state":"NSW","stateFull":"New South Wales","country":"au","electorate":"Sydney","type":"LVR","lat":-33.794883,"lng":151.268071},{"code":"1207","locality":"SYDNEY","localities":["SYDNEY"],"localityCount":1,"state":"NSW","stateFull":"New South Wales","country":"au","electorate":"Sydney","type":"LVR","lat":-33.794883,"lng":151.268071},{"code":"1208","locality":"HAYMARKET","localities":["HAYMARKET"],"localityCount":1,"state":"NSW","stateFull":"New South Wales","country":"au","electorate":"Sydney","type":"LVR","lat":-29.816475,"lng":151.659454},{"code":"1209","locality":"AUSTRALIA SQUARE","localities":["AUSTRALIA SQUARE"],"localityCount":1,"state":"NSW","stateFull":"New South Wales","country":"au","electorate":"Sydney","type":"LVR","lat":-33.891788,"lng":151.176251},{"code":"1210","locality":"AUSTRALIA SQUARE","localities":["AUSTRALIA SQUARE"],"localityCount":1,"state":"NSW","stateFull":"New South Wales","country":"au","electorate":"Sydney","type":"LVR","lat":-33.891788,"lng":151.176251},{"code":"1211","locality":"AUSTRALIA SQUARE","localities":["AUSTRALIA SQUARE"],"localityCount":1,"state":"NSW","stateFull":"New South Wales","country":"au","electorate":"Sydney","type":"LVR","lat":-33.891788,"lng":151.176251},{"code":"1212","locality":"AUSTRALIA SQUARE","localities":["AUSTRALIA SQUARE"],"localityCount":1,"state":"NSW","stateFull":"New South Wales","country":"au","electorate":"Sydney","type":"LVR","lat":-33.891788,"lng":151.176251},{"code":"1213","locality":"AUSTRALIA SQUARE","localities":["AUSTRALIA SQUARE"],"localityCount":1,"state":"NSW","stateFull":"New South Wales","country":"au","electorate":"Sydney","type":"LVR","lat":-33.891788,"lng":151.176251},{"code":"1214","locality":"AUSTRALIA SQUARE","localities":["AUSTRALIA SQUARE"],"localityCount":1,"state":"NSW","stateFull":"New South Wales","country":"au","electorate":"Sydney","type":"LVR","lat":-33.891788,"lng":151.176251},{"code":"1215","locality":"AUSTRALIA SQUARE","localities":["AUSTRALIA SQUARE"],"localityCount":1,"state":"NSW","stateFull":"New South Wales","country":"au","electorate":"Sydney","type":"Post Office Boxes","lat":-33.891788,"lng":151.176251},{"code":"1216","locality":"GROSVENOR PLACE","localities":["GROSVENOR PLACE"],"localityCount":1,"state":"NSW","stateFull":"New South Wales","country":"au","electorate":"Sydney","type":"LVR","lat":-33.741311,"lng":151.034025},{"code":"1217","locality":"GROSVENOR PLACE","localities":["GROSVENOR PLACE"],"localityCount":1,"state":"NSW","stateFull":"New South Wales","country":"au","electorate":"Sydney","type":"LVR","lat":-33.741311,"lng":151.034025},{"code":"1218","locality":"GROSVENOR PLACE","localities":["GROSVENOR PLACE"],"localityCount":1,"state":"NSW","stateFull":"New South Wales","country":"au","electorate":"Sydney","type":"LVR","lat":-33.741311,"lng":151.034025},{"code":"1219","locality":"GROSVENOR PLACE","localities":["GROSVENOR PLACE"],"localityCount":1,"state":"NSW","stateFull":"New South Wales","country":"au","electorate":"Sydney","type":"LVR","lat":-33.741311,"lng":151.034025},{"code":"1220","locality":"GROSVENOR PLACE","localities":["GROSVENOR PLACE"],"localityCount":1,"state":"NSW","stateFull":"New South Wales","country":"au","electorate":"Sydney","type":"Post Office Boxes","lat":-33.741311,"lng":151.034025},{"code":"1221","locality":"ROYAL EXCHANGE","localities":["ROYAL EXCHANGE"],"localityCount":1,"state":"NSW","stateFull":"New South Wales","country":"au","electorate":"Sydney","type":"LVR","lat":-33.86533,"lng":151.207905},{"code":"1222","locality":"ROYAL EXCHANGE","localities":["ROYAL EXCHANGE"],"localityCount":1,"state":"NSW","stateFull":"New South Wales","country":"au","electorate":"Sydney","type":"LVR","lat":-33.86533,"lng":151.207905},{"code":"1223","locality":"ROYAL EXCHANGE","localities":["ROYAL EXCHANGE"],"localityCount":1,"state":"NSW","stateFull":"New South Wales","country":"au","electorate":"Sydney","type":"LVR","lat":-33.86533,"lng":151.207905},{"code":"1224","locality":"ROYAL EXCHANGE","localities":["ROYAL EXCHANGE"],"localityCount":1,"state":"NSW","stateFull":"New South Wales","country":"au","electorate":"Sydney","type":"LVR","lat":-33.86533,"lng":151.207905},{"code":"1225","locality":"ROYAL EXCHANGE","localities":["ROYAL EXCHANGE"],"localityCount":1,"state":"NSW","stateFull":"New South Wales","country":"au","electorate":"Sydney","type":"Post Office Boxes","lat":-33.86533,"lng":151.207905},{"code":"1226","locality":"QUEEN VICTORIA BUILDING","localities":["QUEEN VICTORIA BUILDING"],"localityCount":1,"state":"NSW","stateFull":"New South Wales","country":"au","electorate":"Sydney","type":"LVR","lat":-33.871749,"lng":151.206708},{"code":"1227","locality":"QUEEN VICTORIA BUILDING","localities":["QUEEN VICTORIA BUILDING"],"localityCount":1,"state":"NSW","stateFull":"New South Wales","country":"au","electorate":"Sydney","type":"LVR","lat":-33.871749,"lng":151.206708},{"code":"1228","locality":"QUEEN VICTORIA BUILDING","localities":["QUEEN VICTORIA BUILDING"],"localityCount":1,"state":"NSW","stateFull":"New South Wales","country":"au","electorate":"Sydney","type":"LVR","lat":-33.871749,"lng":151.206708},{"code":"1229","locality":"QUEEN VICTORIA BUILDING","localities":["QUEEN VICTORIA BUILDING"],"localityCount":1,"state":"NSW","stateFull":"New South Wales","country":"au","electorate":"Sydney","type":"LVR","lat":-33.871749,"lng":151.206708},{"code":"1230","locality":"QUEEN VICTORIA BUILDING","localities":["QUEEN VICTORIA BUILDING"],"localityCount":1,"state":"NSW","stateFull":"New South Wales","country":"au","electorate":"Sydney","type":"Post Office Boxes","lat":-33.871749,"lng":151.206708},{"code":"1231","locality":"SYDNEY SOUTH","localities":["SYDNEY SOUTH"],"localityCount":1,"state":"NSW","stateFull":"New South Wales","country":"au","electorate":"Sydney","type":"LVR","lat":-33.815551,"lng":151.042528},{"code":"1232","locality":"SYDNEY SOUTH","localities":["SYDNEY SOUTH"],"localityCount":1,"state":"NSW","stateFull":"New South Wales","country":"au","electorate":"Sydney","type":"LVR","lat":-33.815551,"lng":151.042528},{"code":"1233","locality":"SYDNEY SOUTH","localities":["SYDNEY SOUTH"],"localityCount":1,"state":"NSW","stateFull":"New South Wales","country":"au","electorate":"Sydney","type":"LVR","lat":-33.815551,"lng":151.042528},{"code":"1234","locality":"SYDNEY SOUTH","localities":["SYDNEY SOUTH"],"localityCount":1,"state":"NSW","stateFull":"New South Wales","country":"au","electorate":"Sydney","type":"LVR","lat":-33.815551,"lng":151.042528},{"code":"1235","locality":"SYDNEY SOUTH","localities":["SYDNEY SOUTH"],"localityCount":1,"state":"NSW","stateFull":"New South Wales","country":"au","electorate":"Sydney","type":"Post Office Boxes","lat":-33.815551,"lng":151.042528},{"code":"1236","locality":"HAYMARKET","localities":["HAYMARKET"],"localityCount":1,"state":"NSW","stateFull":"New South Wales","country":"au","electorate":"Sydney","type":"LVR","lat":-29.816475,"lng":151.659454},{"code":"1237","locality":"HAYMARKET","localities":["HAYMARKET"],"localityCount":1,"state":"NSW","stateFull":"New South Wales","country":"au","electorate":"Sydney","type":"LVR","lat":-29.816475,"lng":151.659454},{"code":"1238","locality":"HAYMARKET","localities":["HAYMARKET"],"localityCount":1,"state":"NSW","stateFull":"New South Wales","country":"au","electorate":"Sydney","type":"LVR","lat":-29.816475,"lng":151.659454},{"code":"1239","locality":"HAYMARKET","localities":["HAYMARKET"],"localityCount":1,"state":"NSW","stateFull":"New South Wales","country":"au","electorate":"Sydney","type":"LVR","lat":-29.816475,"lng":151.659454},{"code":"1240","locality":"HAYMARKET","localities":["HAYMARKET"],"localityCount":1,"state":"NSW","stateFull":"New South Wales","country":"au","electorate":"Sydney","type":"Post Office Boxes","lat":-29.816475,"lng":151.659454},{"code":"1291","locality":"SYDNEY","localities":["SYDNEY"],"localityCount":1,"state":"NSW","stateFull":"New South Wales","country":"au","electorate":"Sydney","type":"LVR","lat":-33.794883,"lng":151.268071},{"code":"1292","locality":"SYDNEY","localities":["SYDNEY"],"localityCount":1,"state":"NSW","stateFull":"New South Wales","country":"au","electorate":"Sydney","type":"LVR","lat":-33.794883,"lng":151.268071},{"code":"1293","locality":"SYDNEY","localities":["SYDNEY"],"localityCount":1,"state":"NSW","stateFull":"New South Wales","country":"au","electorate":"Sydney","type":"LVR","lat":-33.794883,"lng":151.268071},{"code":"1294","locality":"SYDNEY","localities":["SYDNEY"],"localityCount":1,"state":"NSW","stateFull":"New South Wales","country":"au","electorate":"Sydney","type":"LVR","lat":-33.794883,"lng":151.268071},{"code":"1295","locality":"SYDNEY","localities":["SYDNEY"],"localityCount":1,"state":"NSW","stateFull":"New South Wales","country":"au","electorate":"Sydney","type":"LVR","lat":-33.794883,"lng":151.268071},{"code":"1296","locality":"SYDNEY","localities":["SYDNEY"],"localityCount":1,"state":"NSW","stateFull":"New South Wales","country":"au","electorate":"Sydney","type":"LVR","lat":-33.794883,"lng":151.268071},{"code":"1297","locality":"SYDNEY","localities":["SYDNEY"],"localityCount":1,"state":"NSW","stateFull":"New South Wales","country":"au","electorate":"Sydney","type":"LVR","lat":-33.794883,"lng":151.268071},{"code":"1298","locality":"SYDNEY","localities":["SYDNEY"],"localityCount":1,"state":"NSW","stateFull":"New South Wales","country":"au","electorate":"Sydney","type":"LVR","lat":-33.794883,"lng":151.268071},{"code":"1299","locality":"SYDNEY","localities":["SYDNEY"],"localityCount":1,"state":"NSW","stateFull":"New South Wales","country":"au","electorate":"Sydney","type":"LVR","lat":-33.794883,"lng":151.268071},{"code":"1300","locality":"DARLINGHURST","localities":["DARLINGHURST"],"localityCount":1,"state":"NSW","stateFull":"New South Wales","country":"au","electorate":"Sydney","type":"Post Office Boxes","lat":-33.877331,"lng":151.220876},{"code":"1314","locality":"EASTERN SUBURBS MC","localities":["EASTERN SUBURBS MC"],"localityCount":1,"state":"NSW","stateFull":"New South Wales","country":"au","electorate":"Durack","type":"Delivery Area","lat":-33.9508,"lng":151.21},{"code":"1335","locality":"POTTS POINT","localities":["POTTS POINT"],"localityCount":1,"state":"NSW","stateFull":"New South Wales","country":"au","electorate":"Sydney","type":"Post Office Boxes","lat":-33.82269,"lng":151.117575},{"code":"1340","locality":"KINGS CROSS","localities":["KINGS CROSS"],"localityCount":1,"state":"NSW","stateFull":"New South Wales","country":"au","electorate":"Sydney","type":"Post Office Boxes","lat":-35.537721,"lng":148.021014},{"code":"1350","locality":"WOOLLAHRA","localities":["WOOLLAHRA"],"localityCount":1,"state":"NSW","stateFull":"New South Wales","country":"au","electorate":"Sydney","type":"Delivery Area","lat":-33.88871,"lng":151.240508},{"code":"1355","locality":"BONDI JUNCTION","localities":["BONDI JUNCTION"],"localityCount":1,"state":"NSW","stateFull":"New South Wales","country":"au","electorate":"Sydney","type":"Post Office Boxes","lat":-33.893739,"lng":151.262502},{"code":"1360","locality":"DOUBLE BAY","localities":["DOUBLE BAY"],"localityCount":1,"state":"NSW","stateFull":"New South Wales","country":"au","electorate":"Sydney","type":"Post Office Boxes","lat":-33.87584,"lng":151.241938},{"code":"1401","locality":"BROADWAY","localities":["BROADWAY"],"localityCount":1,"state":"NSW","stateFull":"New South Wales","country":"au","electorate":"Hume","type":"LVR","lat":-33.884217,"lng":151.199825},{"code":"1405","locality":"CHULLORA","localities":["CHULLORA"],"localityCount":1,"state":"NSW","stateFull":"New South Wales","country":"au","type":"Post Office Boxes","lat":-33.891945,"lng":151.047706},{"code":"1419","locality":"SOUTHERN SUBURBS MC","localities":["SOUTHERN SUBURBS MC"],"localityCount":1,"state":"NSW","stateFull":"New South Wales","country":"au","electorate":"Banks","type":"Delivery Area","lat":-34.0641,"lng":151.094},{"code":"1420","locality":"STRAWBERRY HILLS","localities":["STRAWBERRY HILLS"],"localityCount":1,"state":"NSW","stateFull":"New South Wales","country":"au","electorate":"Banks","type":"LVR","lat":-33.726098,"lng":150.931838},{"code":"1422","locality":"STRAWBERRY HILLS","localities":["STRAWBERRY HILLS"],"localityCount":1,"state":"NSW","stateFull":"New South Wales","country":"au","electorate":"Banks","type":"LVR","lat":-33.726098,"lng":150.931838},{"code":"1423","locality":"STRAWBERRY HILLS","localities":["STRAWBERRY HILLS"],"localityCount":1,"state":"NSW","stateFull":"New South Wales","country":"au","electorate":"Banks","type":"LVR","lat":-33.726098,"lng":150.931838},{"code":"1424","locality":"STRAWBERRY HILLS","localities":["STRAWBERRY HILLS"],"localityCount":1,"state":"NSW","stateFull":"New South Wales","country":"au","electorate":"Banks","type":"LVR","lat":-33.726098,"lng":150.931838},{"code":"1425","locality":"STRAWBERRY HILLS","localities":["STRAWBERRY HILLS"],"localityCount":1,"state":"NSW","stateFull":"New South Wales","country":"au","electorate":"Banks","type":"LVR","lat":-33.726098,"lng":150.931838},{"code":"1426","locality":"STRAWBERRY HILLS","localities":["STRAWBERRY HILLS"],"localityCount":1,"state":"NSW","stateFull":"New South Wales","country":"au","electorate":"Banks","type":"LVR","lat":-33.726098,"lng":150.931838},{"code":"1427","locality":"STRAWBERRY HILLS","localities":["STRAWBERRY HILLS"],"localityCount":1,"state":"NSW","stateFull":"New South Wales","country":"au","electorate":"Banks","type":"LVR","lat":-33.726098,"lng":150.931838},{"code":"1428","locality":"STRAWBERRY HILLS","localities":["STRAWBERRY HILLS"],"localityCount":1,"state":"NSW","stateFull":"New South Wales","country":"au","electorate":"Banks","type":"LVR","lat":-33.726098,"lng":150.931838},{"code":"1429","locality":"STRAWBERRY HILLS","localities":["STRAWBERRY HILLS"],"localityCount":1,"state":"NSW","stateFull":"New South Wales","country":"au","electorate":"Banks","type":"LVR","lat":-33.726098,"lng":150.931838},{"code":"1430","locality":"EVELEIGH","localities":["EVELEIGH"],"localityCount":1,"state":"NSW","stateFull":"New South Wales","country":"au","electorate":"Banks","type":"LVR","lat":-33.890232,"lng":151.199489},{"code":"1435","locality":"ALEXANDRIA","localities":["ALEXANDRIA"],"localityCount":1,"state":"NSW","stateFull":"New South Wales","country":"au","electorate":"Banks","type":"Post Office Boxes","lat":-33.711785,"lng":151.108248},{"code":"1440","locality":"WATERLOO","localities":["WATERLOO"],"localityCount":1,"state":"NSW","stateFull":"New South Wales","country":"au","electorate":"Banks","type":"Post Office Boxes","lat":-33.902836,"lng":151.057914},{"code":"1441","locality":"WATERLOO","localities":["WATERLOO"],"localityCount":1,"state":"NSW","stateFull":"New South Wales","country":"au","electorate":"Banks","type":"LVR","lat":-33.902836,"lng":151.057914},{"code":"1445","locality":"ROSEBERY","localities":["ROSEBERY"],"localityCount":1,"state":"NSW","stateFull":"New South Wales","country":"au","electorate":"Banks","type":"Post Office Boxes","lat":-34.083089,"lng":151.007691},{"code":"1450","locality":"CAMPERDOWN","localities":["CAMPERDOWN"],"localityCount":1,"state":"NSW","stateFull":"New South Wales","country":"au","electorate":"Banks","type":"Post Office Boxes","lat":-30.305815,"lng":153.13679},{"code":"1455","locality":"BOTANY","localities":["BOTANY"],"localityCount":1,"state":"NSW","stateFull":"New South Wales","country":"au","electorate":"Banks","type":"Post Office Boxes","lat":-33.947087,"lng":151.197644},{"code":"1460","locality":"MASCOT","localities":["MASCOT"],"localityCount":1,"state":"NSW","stateFull":"New South Wales","country":"au","electorate":"Banks","type":"Post Office Boxes","lat":-33.926669,"lng":151.210791},{"code":"1465","locality":"KENSINGTON","localities":["KENSINGTON"],"localityCount":1,"state":"NSW","stateFull":"New South Wales","country":"au","electorate":"Banks","type":"Post Office Boxes","lat":-33.888549,"lng":151.140735},{"code":"1466","locality":"UNSW SYDNEY","localities":["UNSW SYDNEY"],"localityCount":1,"state":"NSW","stateFull":"New South Wales","country":"au","electorate":"Banks","type":"Post Office Boxes","lat":-33.906561,"lng":151.234417},{"code":"1470","locality":"DRUMMOYNE","localities":["DRUMMOYNE"],"localityCount":1,"state":"NSW","stateFull":"New South Wales","country":"au","electorate":"Banks","type":"Post Office Boxes","lat":-33.842999,"lng":151.151958},{"code":"1475","locality":"MARRICKVILLE","localities":["MARRICKVILLE"],"localityCount":1,"state":"NSW","stateFull":"New South Wales","country":"au","electorate":"Banks","type":"Post Office Boxes","lat":-33.90911,"lng":151.15334},{"code":"1476","locality":"MARRICKVILLE","localities":["MARRICKVILLE"],"localityCount":1,"state":"NSW","stateFull":"New South Wales","country":"au","electorate":"Banks","type":"LVR","lat":-33.90911,"lng":151.15334},{"code":"1480","locality":"KINGSGROVE","localities":["KINGSGROVE"],"localityCount":1,"state":"NSW","stateFull":"New South Wales","country":"au","electorate":"Banks","type":"Post Office Boxes","lat":-33.935923,"lng":151.100027},{"code":"1481","locality":"HURSTVILLE BC","localities":["HURSTVILLE BC"],"localityCount":1,"state":"NSW","stateFull":"New South Wales","country":"au","electorate":"Banks","type":"Delivery Area","lat":-33.9646,"lng":151.101},{"code":"1484","locality":"KINGSGROVE DC","localities":["KINGSGROVE DC"],"localityCount":1,"state":"NSW","stateFull":"New South Wales","country":"au","electorate":"Banks","type":"Delivery Area","lat":-33.9386,"lng":151.101},{"code":"1485","locality":"KOGARAH","localities":["KOGARAH"],"localityCount":1,"state":"NSW","stateFull":"New South Wales","country":"au","electorate":"Banks","type":"Delivery Area","lat":-33.974354,"lng":151.140345},{"code":"1490","locality":"MIRANDA","localities":["MIRANDA"],"localityCount":1,"state":"NSW","stateFull":"New South Wales","country":"au","electorate":"Banks","type":"Post Office Boxes","lat":-34.035878,"lng":151.107201},{"code":"1493","locality":"HURSTVILLE","localities":["HURSTVILLE"],"localityCount":1,"state":"NSW","stateFull":"New South Wales","country":"au","electorate":"Banks","type":"LVR","lat":-33.975869,"lng":151.088939},{"code":"1495","locality":"CARINGBAH","localities":["CARINGBAH"],"localityCount":1,"state":"NSW","stateFull":"New South Wales","country":"au","electorate":"Banks","type":"Post Office Boxes","lat":-34.046927,"lng":151.123943},{"code":"1499","locality":"SUTHERLAND","localities":["SUTHERLAND"],"localityCount":1,"state":"NSW","stateFull":"New South Wales","country":"au","electorate":"Banks","type":"Post Office Boxes","lat":-34.015705,"lng":151.0622},{"code":"1515","locality":"WEST CHATSWOOD","localities":["WEST CHATSWOOD"],"localityCount":1,"state":"NSW","stateFull":"New South Wales","country":"au","electorate":"Bennelong","type":"Post Office Boxes","lat":-33.824607,"lng":151.207261},{"code":"1560","locality":"NORTHBRIDGE","localities":["NORTHBRIDGE"],"localityCount":1,"state":"NSW","stateFull":"New South Wales","country":"au","electorate":"Bennelong","type":"Delivery Area","lat":-33.812636,"lng":151.214797},{"code":"1565","locality":"MILSONS POINT","localities":["MILSONS POINT"],"localityCount":1,"state":"NSW","stateFull":"New South Wales","country":"au","electorate":"Bennelong","type":"Post Office Boxes","lat":-33.865367,"lng":151.193071},{"code":"1570","locality":"ARTARMON","localities":["ARTARMON"],"localityCount":1,"state":"NSW","stateFull":"New South Wales","country":"au","electorate":"Bennelong","type":"Post Office Boxes","lat":-33.808087,"lng":151.192733},{"code":"1585","locality":"CROWS NEST","localities":["CROWS NEST"],"localityCount":1,"state":"NSW","stateFull":"New South Wales","country":"au","electorate":"Bennelong","type":"Post Office Boxes","lat":-33.83459,"lng":151.20085},{"code":"1590","locality":"ST LEONARDS","localities":["ST LEONARDS"],"localityCount":1,"state":"NSW","stateFull":"New South Wales","country":"au","electorate":"Bennelong","type":"Post Office Boxes","lat":-33.292001,"lng":151.468652},{"code":"1595","locality":"LANE COVE","localities":["LANE COVE"],"localityCount":1,"state":"NSW","stateFull":"New South Wales","country":"au","electorate":"Bennelong","type":"Post Office Boxes","lat":-33.791875,"lng":151.187955},{"code":"1597","locality":"LANE COVE","localities":["LANE COVE"],"localityCount":1,"state":"NSW","stateFull":"New South Wales","country":"au","electorate":"Bennelong","type":"LVR","lat":-33.791875,"lng":151.187955},{"code":"1602","locality":"LANE COVE DC","localities":["LANE COVE DC"],"localityCount":1,"state":"NSW","stateFull":"New South Wales","country":"au","electorate":"Bennelong","type":"Delivery Area","lat":-33.8148,"lng":151.166},{"code":"1630","locality":"HORNSBY","localities":["HORNSBY"],"localityCount":1,"state":"NSW","stateFull":"New South Wales","country":"au","electorate":"Berowra","type":"Post Office Boxes","lat":-33.707684,"lng":151.099812},{"code":"1635","locality":"HORNSBY WESTFIELD","localities":["HORNSBY WESTFIELD"],"localityCount":1,"state":"NSW","stateFull":"New South Wales","country":"au","electorate":"Berowra","type":"Delivery Area","lat":-33.7046,"lng":151.101},{"code":"1639","locality":"FRENCHS FOREST","localities":["FRENCHS FOREST"],"localityCount":1,"state":"NSW","stateFull":"New South Wales","country":"au","electorate":"Berowra","type":"LVR","lat":-33.793137,"lng":151.246751},{"code":"1640","locality":"FRENCHS FOREST","localities":["FRENCHS FOREST"],"localityCount":1,"state":"NSW","stateFull":"New South Wales","country":"au","electorate":"Berowra","type":"Post Office Boxes","lat":-33.793137,"lng":151.246751},{"code":"1655","locality":"MANLY","localities":["MANLY"],"localityCount":1,"state":"NSW","stateFull":"New South Wales","country":"au","electorate":"Mackellar","type":"Post Office Boxes","lat":-33.329799,"lng":151.505125},{"code":"1658","locality":"MONA VALE","localities":["MONA VALE"],"localityCount":1,"state":"NSW","stateFull":"New South Wales","country":"au","electorate":"Mackellar","type":"LVR","lat":-33.698773,"lng":151.216799},{"code":"1660","locality":"MONA VALE","localities":["MONA VALE"],"localityCount":1,"state":"NSW","stateFull":"New South Wales","country":"au","electorate":"Mackellar","type":"Post Office Boxes","lat":-33.698773,"lng":151.216799},{"code":"1670","locality":"NORTH RYDE","localities":["NORTH RYDE","NORTH RYDE BC"],"localityCount":2,"state":"NSW","stateFull":"New South Wales","country":"au","electorate":"Mackellar","type":"Post Office Boxes","lat":-33.7932,"lng":151.12},{"code":"1675","locality":"GLADESVILLE","localities":["GLADESVILLE"],"localityCount":1,"state":"NSW","stateFull":"New South Wales","country":"au","electorate":"Mackellar","type":"Post Office Boxes","lat":-33.833033,"lng":151.139681},{"code":"1680","locality":"RYDE","localities":["RYDE"],"localityCount":1,"state":"NSW","stateFull":"New South Wales","country":"au","electorate":"Mackellar","type":"Post Office Boxes","lat":-33.761498,"lng":151.137807},{"code":"1685","locality":"WEST RYDE","localities":["WEST RYDE"],"localityCount":1,"state":"NSW","stateFull":"New South Wales","country":"au","electorate":"Mackellar","type":"Post Office Boxes","lat":-33.80406,"lng":151.09064},{"code":"1700","locality":"ERMINGTON","localities":["ERMINGTON"],"localityCount":1,"state":"NSW","stateFull":"New South Wales","country":"au","electorate":"Robertson","type":"Post Office Boxes","lat":-33.950299,"lng":151.206982},{"code":"1710","locality":"EPPING","localities":["EPPING"],"localityCount":1,"state":"NSW","stateFull":"New South Wales","country":"au","electorate":"Robertson","type":"Post Office Boxes","lat":-33.78417,"lng":151.116696},{"code":"1715","locality":"PENNANT HILLS","localities":["PENNANT HILLS"],"localityCount":1,"state":"NSW","stateFull":"New South Wales","country":"au","electorate":"Robertson","type":"Post Office Boxes","lat":-33.758433,"lng":151.049106},{"code":"1730","locality":"SEVEN HILLS","localities":["SEVEN HILLS"],"localityCount":1,"state":"NSW","stateFull":"New South Wales","country":"au","electorate":"Robertson","type":"Post Office Boxes","lat":-33.760263,"lng":150.966912},{"code":"1740","locality":"PARRAMATTA","localities":["PARRAMATTA"],"localityCount":1,"state":"NSW","stateFull":"New South Wales","country":"au","electorate":"Robertson","type":"LVR","lat":-33.886166,"lng":151.139472},{"code":"1741","locality":"PARRAMATTA","localities":["PARRAMATTA"],"localityCount":1,"state":"NSW","stateFull":"New South Wales","country":"au","electorate":"Robertson","type":"LVR","lat":-33.886166,"lng":151.139472},{"code":"1750","locality":"NORTH PARRAMATTA","localities":["NORTH PARRAMATTA"],"localityCount":1,"state":"NSW","stateFull":"New South Wales","country":"au","electorate":"Robertson","type":"Post Office Boxes","lat":-33.857053,"lng":151.023102},{"code":"1755","locality":"BAULKHAM HILLS","localities":["BAULKHAM HILLS"],"localityCount":1,"state":"NSW","stateFull":"New South Wales","country":"au","electorate":"Robertson","type":"Post Office Boxes","lat":-33.767239,"lng":150.968177},{"code":"1765","locality":"CASTLE HILL","localities":["CASTLE HILL"],"localityCount":1,"state":"NSW","stateFull":"New South Wales","country":"au","electorate":"Robertson","type":"Post Office Boxes","lat":-33.735906,"lng":151.030535},{"code":"1771","locality":"PENNANT HILLS","localities":["PENNANT HILLS"],"localityCount":1,"state":"NSW","stateFull":"New South Wales","country":"au","electorate":"Robertson","type":"LVR","lat":-33.758433,"lng":151.049106},{"code":"1781","locality":"SEVEN HILLS MC","localities":["SEVEN HILLS MC"],"localityCount":1,"state":"NSW","stateFull":"New South Wales","country":"au","electorate":"Robertson","type":"Delivery Area","lat":-33.7779,"lng":150.932},{"code":"1790","locality":"ST MARYS","localities":["ST MARYS"],"localityCount":1,"state":"NSW","stateFull":"New South Wales","country":"au","electorate":"Robertson","type":"Post Office Boxes","lat":-33.859047,"lng":151.19554},{"code":"1800","locality":"ASHFIELD","localities":["ASHFIELD"],"localityCount":1,"state":"NSW","stateFull":"New South Wales","country":"au","electorate":"Robertson","type":"Post Office Boxes","lat":-33.887602,"lng":151.124008},{"code":"1805","locality":"BURWOOD","localities":["BURWOOD"],"localityCount":1,"state":"NSW","stateFull":"New South Wales","country":"au","electorate":"Robertson","type":"Post Office Boxes","lat":-33.891556,"lng":151.10082},{"code":"1811","locality":"SILVERWATER","localities":["SILVERWATER"],"localityCount":1,"state":"NSW","stateFull":"New South Wales","country":"au","electorate":"Robertson","type":"Post Office Boxes","lat":-33.82328,"lng":151.051375},{"code":"1819","locality":"STRATHFIELD","localities":["STRATHFIELD"],"localityCount":1,"state":"NSW","stateFull":"New South Wales","country":"au","electorate":"Robertson","type":"LVR","lat":-33.877139,"lng":151.093326},{"code":"1825","locality":"LIDCOMBE","localities":["LIDCOMBE"],"localityCount":1,"state":"NSW","stateFull":"New South Wales","country":"au","electorate":"Robertson","type":"Delivery Area","lat":-33.872483,"lng":151.044768},{"code":"1830","locality":"GRANVILLE","localities":["GRANVILLE"],"localityCount":1,"state":"NSW","stateFull":"New South Wales","country":"au","electorate":"Robertson","type":"LVR","lat":-33.859289,"lng":150.948582},{"code":"1831","locality":"GRANVILLE","localities":["GRANVILLE"],"localityCount":1,"state":"NSW","stateFull":"New South Wales","country":"au","electorate":"Robertson","type":"LVR","lat":-33.859289,"lng":150.948582},{"code":"1835","locality":"AUBURN","localities":["AUBURN"],"localityCount":1,"state":"NSW","stateFull":"New South Wales","country":"au","electorate":"Robertson","type":"Post Office Boxes","lat":-33.883928,"lng":151.023796},{"code":"1851","locality":"WETHERILL PARK","localities":["WETHERILL PARK","WETHERILL PARK DC"],"localityCount":2,"state":"NSW","stateFull":"New South Wales","country":"au","electorate":"McMahon","type":"Post Office Boxes","lat":-33.8498,"lng":150.911},{"code":"1860","locality":"FAIRFIELD","localities":["FAIRFIELD"],"localityCount":1,"state":"NSW","stateFull":"New South Wales","country":"au","electorate":"McMahon","type":"Post Office Boxes","lat":-33.850457,"lng":150.961124},{"code":"1871","locality":"LIVERPOOL","localities":["LIVERPOOL"],"localityCount":1,"state":"NSW","stateFull":"New South Wales","country":"au","electorate":"Werriwa","type":"Post Office Boxes","lat":-33.888327,"lng":151.103632},{"code":"1874","locality":"MOOREBANK","localities":["MOOREBANK"],"localityCount":1,"state":"NSW","stateFull":"New South Wales","country":"au","type":"LVR","lat":-33.93567,"lng":150.941338},{"code":"1875","locality":"MOOREBANK","localities":["MOOREBANK"],"localityCount":1,"state":"NSW","stateFull":"New South Wales","country":"au","electorate":"Werriwa","type":"Post Office Boxes","lat":-33.93567,"lng":150.941338},{"code":"1885","locality":"BANKSTOWN","localities":["BANKSTOWN"],"localityCount":1,"state":"NSW","stateFull":"New South Wales","country":"au","electorate":"Werriwa","type":"Post Office Boxes","lat":-33.907417,"lng":151.024581},{"code":"1888","locality":"BANKSTOWN","localities":["BANKSTOWN"],"localityCount":1,"state":"NSW","stateFull":"New South Wales","country":"au","electorate":"Werriwa","type":"LVR","lat":-33.907417,"lng":151.024581},{"code":"1890","locality":"INGLEBURN","localities":["INGLEBURN"],"localityCount":1,"state":"NSW","stateFull":"New South Wales","country":"au","electorate":"Werriwa","type":"Post Office Boxes","lat":-33.960035,"lng":150.802088},{"code":"1891","locality":"MILPERRA","localities":["MILPERRA"],"localityCount":1,"state":"NSW","stateFull":"New South Wales","country":"au","electorate":"Werriwa","type":"Post Office Boxes","lat":-33.932221,"lng":151.000183},{"code":"2000","locality":"BARANGAROO","localities":["BARANGAROO","DARLING HARBOUR","DAWES POINT","HAYMARKET","MILLERS POINT","PARLIAMENT HOUSE","SYDNEY","SYDNEY SOUTH","THE ROCKS"],"localityCount":9,"state":"NSW","stateFull":"New South Wales","country":"au","electorate":"Sydney","type":"Delivery Area","lat":-33.86052,"lng":151.20158},{"code":"2001","locality":"SYDNEY","localities":["SYDNEY"],"localityCount":1,"state":"NSW","stateFull":"New South Wales","country":"au","electorate":"Sydney","type":"Post Office Boxes","lat":-33.794883,"lng":151.268071},{"code":"2002","locality":"WORLD SQUARE","localities":["WORLD SQUARE"],"localityCount":1,"state":"NSW","stateFull":"New South Wales","country":"au","electorate":"Sydney","type":"Post Office Boxes","lat":-33.877121,"lng":151.206924},{"code":"2004","locality":"ALEXANDRIA MC","localities":["ALEXANDRIA MC","EASTERN SUBURBS MC"],"localityCount":2,"state":"NSW","stateFull":"New South Wales","country":"au","electorate":"Sydney","type":"Delivery Area","lat":-33.908,"lng":151.19},{"code":"2006","locality":"THE UNIVERSITY OF SYDNEY","localities":["THE UNIVERSITY OF SYDNEY"],"localityCount":1,"state":"NSW","stateFull":"New South Wales","country":"au","electorate":"Sydney","type":"Delivery Area","lat":-33.889219,"lng":151.186507},{"code":"2007","locality":"BROADWAY","localities":["BROADWAY","ULTIMO"],"localityCount":2,"state":"NSW","stateFull":"New South Wales","country":"au","electorate":"Sydney","type":"Delivery Area","lat":-33.883189,"lng":151.19665},{"code":"2008","locality":"CHIPPENDALE","localities":["CHIPPENDALE","DARLINGTON","GOLDEN GROVE"],"localityCount":3,"state":"NSW","stateFull":"New South Wales","country":"au","electorate":"Sydney","type":"Delivery Area","lat":-33.891146,"lng":151.193858},{"code":"2009","locality":"DARLING ISLAND","localities":["DARLING ISLAND","PYRMONT"],"localityCount":2,"state":"NSW","stateFull":"New South Wales","country":"au","electorate":"Sydney","type":"Delivery Area","lat":-33.871222,"lng":151.193055},{"code":"2010","locality":"DARLINGHURST","localities":["DARLINGHURST","SURRY HILLS","TAYLOR SQUARE"],"localityCount":3,"state":"NSW","stateFull":"New South Wales","country":"au","electorate":"Wentworth","type":"Delivery Area","lat":-33.884119,"lng":151.212262},{"code":"2011","locality":"ELIZABETH BAY","localities":["ELIZABETH BAY","HMAS KUTTABUL","KINGS CROSS","POTTS POINT","RUSHCUTTERS BAY","WOOLLOOMOOLOO"],"localityCount":6,"state":"NSW","stateFull":"New South Wales","country":"au","electorate":"Wentworth","type":"Delivery Area","lat":-33.873599,"lng":151.221626},{"code":"2012","locality":"STRAWBERRY HILLS","localities":["STRAWBERRY HILLS"],"localityCount":1,"state":"NSW","stateFull":"New South Wales","country":"au","electorate":"Sydney","type":"Post Office Boxes","lat":-33.726098,"lng":150.931838},{"code":"2013","locality":"STRAWBERRY HILLS","localities":["STRAWBERRY HILLS"],"localityCount":1,"state":"NSW","stateFull":"New South Wales","country":"au","electorate":"Sydney","type":"Post Office Boxes","lat":-33.726098,"lng":150.931838},{"code":"2015","locality":"ALEXANDRIA","localities":["ALEXANDRIA","BEACONSFIELD","EVELEIGH"],"localityCount":3,"state":"NSW","stateFull":"New South Wales","country":"au","electorate":"Sydney","type":"Delivery Area","lat":-33.910105,"lng":151.194825},{"code":"2016","locality":"REDFERN","localities":["REDFERN"],"localityCount":1,"state":"NSW","stateFull":"New South Wales","country":"au","electorate":"Sydney","type":"Delivery Area","lat":-33.894912,"lng":151.206211},{"code":"2017","locality":"WATERLOO","localities":["WATERLOO","WATERLOO DC","ZETLAND"],"localityCount":3,"state":"NSW","stateFull":"New South Wales","country":"au","electorate":"Sydney","type":"Delivery Area","lat":-33.903892,"lng":151.206316},{"code":"2018","locality":"EASTLAKES","localities":["EASTLAKES","ROSEBERY"],"localityCount":2,"state":"NSW","stateFull":"New South Wales","country":"au","electorate":"Sydney","type":"Delivery Area","lat":-33.9233,"lng":151.202697},{"code":"2019","locality":"BANKSMEADOW","localities":["BANKSMEADOW","BOTANY"],"localityCount":2,"state":"NSW","stateFull":"New South Wales","country":"au","electorate":"Barton","type":"Delivery Area","lat":-33.946923,"lng":151.207285},{"code":"2020","locality":"MASCOT","localities":["MASCOT","SYDNEY DOMESTIC AIRPORT","SYDNEY INTERNATIONAL AIRPORT"],"localityCount":3,"state":"NSW","stateFull":"New South Wales","country":"au","electorate":"Sydney","type":"Delivery Area","lat":-33.936179,"lng":151.176775},{"code":"2021","locality":"CENTENNIAL PARK","localities":["CENTENNIAL PARK","MOORE PARK","PADDINGTON"],"localityCount":3,"state":"NSW","stateFull":"New South Wales","country":"au","electorate":"Wentworth","type":"Delivery Area","lat":-33.895705,"lng":151.227236},{"code":"2022","locality":"BONDI JUNCTION","localities":["BONDI JUNCTION","BONDI JUNCTION PLAZA","QUEENS PARK"],"localityCount":3,"state":"NSW","stateFull":"New South Wales","country":"au","electorate":"Wentworth","type":"Delivery Area","lat":-33.896401,"lng":151.245049},{"code":"2023","locality":"BELLEVUE HILL","localities":["BELLEVUE HILL"],"localityCount":1,"state":"NSW","stateFull":"New South Wales","country":"au","electorate":"Wentworth","type":"Delivery Area","lat":-33.884685,"lng":151.25591},{"code":"2024","locality":"BRONTE","localities":["BRONTE","CHARING CROSS","WAVERLEY"],"localityCount":3,"state":"NSW","stateFull":"New South Wales","country":"au","electorate":"Wentworth","type":"Delivery Area","lat":-33.904414,"lng":151.259392},{"code":"2025","locality":"WOOLLAHRA","localities":["WOOLLAHRA"],"localityCount":1,"state":"NSW","stateFull":"New South Wales","country":"au","electorate":"Wentworth","type":"Delivery Area","lat":-33.88871,"lng":151.240508},{"code":"2026","locality":"BEN BUCKLER","localities":["BEN BUCKLER","BONDI","BONDI BEACH","NORTH BONDI","TAMARAMA"],"localityCount":5,"state":"NSW","stateFull":"New South Wales","country":"au","electorate":"Wentworth","type":"Delivery Area","lat":-33.891041,"lng":151.268968},{"code":"2027","locality":"DARLING POINT","localities":["DARLING POINT","EDGECLIFF","HMAS RUSHCUTTERS","POINT PIPER"],"localityCount":4,"state":"NSW","stateFull":"New South Wales","country":"au","electorate":"Wentworth","type":"Delivery Area","lat":-33.868972,"lng":151.250494},{"code":"2028","locality":"DOUBLE BAY","localities":["DOUBLE BAY"],"localityCount":1,"state":"NSW","stateFull":"New South Wales","country":"au","electorate":"Wentworth","type":"Delivery Area","lat":-33.878413,"lng":151.240965},{"code":"2029","locality":"ROSE BAY","localities":["ROSE BAY"],"localityCount":1,"state":"NSW","stateFull":"New South Wales","country":"au","electorate":"Wentworth","type":"Delivery Area","lat":-33.875709,"lng":151.266989},{"code":"2030","locality":"DIAMOND BAY","localities":["DIAMOND BAY","DOVER HEIGHTS","HMAS WATSON","ROSE BAY NORTH","VAUCLUSE","WATSONS BAY"],"localityCount":6,"state":"NSW","stateFull":"New South Wales","country":"au","electorate":"Wentworth","type":"Delivery Area","lat":-33.858378,"lng":151.275977},{"code":"2031","locality":"CLOVELLY","localities":["CLOVELLY","CLOVELLY WEST","RANDWICK","RANDWICK DC","ST PAULS"],"localityCount":5,"state":"NSW","stateFull":"New South Wales","country":"au","electorate":"Wentworth","type":"Delivery Area","lat":-33.914832,"lng":151.239167},{"code":"2032","locality":"DACEYVILLE","localities":["DACEYVILLE","KINGSFORD"],"localityCount":2,"state":"NSW","stateFull":"New South Wales","country":"au","electorate":"Barton","type":"Delivery Area","lat":-33.930314,"lng":151.223936},{"code":"2033","locality":"KENSINGTON","localities":["KENSINGTON"],"localityCount":1,"state":"NSW","stateFull":"New South Wales","country":"au","electorate":"Sydney","type":"Delivery Area","lat":-33.91139,"lng":151.218435},{"code":"2034","locality":"COOGEE","localities":["COOGEE","SOUTH COOGEE"],"localityCount":2,"state":"NSW","stateFull":"New South Wales","country":"au","electorate":"Barton","type":"Delivery Area","lat":-33.929096,"lng":151.252171},{"code":"2035","locality":"MAROUBRA","localities":["MAROUBRA","MAROUBRA SOUTH","PAGEWOOD"],"localityCount":3,"state":"NSW","stateFull":"New South Wales","country":"au","electorate":"Barton","type":"Delivery Area","lat":-33.945635,"lng":151.241292},{"code":"2036","locality":"CHIFLEY","localities":["CHIFLEY","EASTGARDENS","HILLSDALE","LA PEROUSE","LITTLE BAY","MALABAR","MATRAVILLE","PHILLIP BAY","PORT BOTANY"],"localityCount":9,"state":"NSW","stateFull":"New South Wales","country":"au","electorate":"Barton","type":"Delivery Area","lat":-33.969624,"lng":151.237844},{"code":"2037","locality":"FOREST LODGE","localities":["FOREST LODGE","GLEBE"],"localityCount":2,"state":"NSW","stateFull":"New South Wales","country":"au","electorate":"Sydney","type":"Delivery Area","lat":-33.880179,"lng":151.184458},{"code":"2038","locality":"ANNANDALE","localities":["ANNANDALE"],"localityCount":1,"state":"NSW","stateFull":"New South Wales","country":"au","electorate":"Sydney","type":"Delivery Area","lat":-33.881624,"lng":151.170165},{"code":"2039","locality":"ROZELLE","localities":["ROZELLE"],"localityCount":1,"state":"NSW","stateFull":"New South Wales","country":"au","electorate":"Grayndler","type":"Delivery Area","lat":-33.867187,"lng":151.171915},{"code":"2040","locality":"LEICHHARDT","localities":["LEICHHARDT","LILYFIELD"],"localityCount":2,"state":"NSW","stateFull":"New South Wales","country":"au","electorate":"Grayndler","type":"Delivery Area","lat":-33.878774,"lng":151.156819},{"code":"2041","locality":"BALMAIN","localities":["BALMAIN","BALMAIN EAST","BIRCHGROVE"],"localityCount":3,"state":"NSW","stateFull":"New South Wales","country":"au","electorate":"Grayndler","type":"Delivery Area","lat":-33.858556,"lng":151.180095},{"code":"2042","locality":"ENMORE","localities":["ENMORE","NEWTOWN"],"localityCount":2,"state":"NSW","stateFull":"New South Wales","country":"au","electorate":"Sydney","type":"Delivery Area","lat":-33.900649,"lng":151.175354},{"code":"2043","locality":"ERSKINEVILLE","localities":["ERSKINEVILLE"],"localityCount":1,"state":"NSW","stateFull":"New South Wales","country":"au","electorate":"Sydney","type":"Delivery Area","lat":-33.903521,"lng":151.184665},{"code":"2044","locality":"ST PETERS","localities":["ST PETERS","ST PETERS DC","SYDENHAM","TEMPE"],"localityCount":4,"state":"NSW","stateFull":"New South Wales","country":"au","electorate":"Sydney","type":"Delivery Area","lat":-33.920698,"lng":151.17074},{"code":"2045","locality":"HABERFIELD","localities":["HABERFIELD"],"localityCount":1,"state":"NSW","stateFull":"New South Wales","country":"au","electorate":"Grayndler","type":"Delivery Area","lat":-33.879301,"lng":151.138684},{"code":"2046","locality":"ABBOTSFORD","localities":["ABBOTSFORD","CANADA BAY","CHISWICK","FIVE DOCK","RODD POINT","RUSSELL LEA","WAREEMBA"],"localityCount":7,"state":"NSW","stateFull":"New South Wales","country":"au","electorate":"Reid","type":"Delivery Area","lat":-33.866044,"lng":151.133865},{"code":"2047","locality":"DRUMMOYNE","localities":["DRUMMOYNE"],"localityCount":1,"state":"NSW","stateFull":"New South Wales","country":"au","electorate":"Reid","type":"Delivery Area","lat":-33.853924,"lng":151.165735},{"code":"2048","locality":"STANMORE","localities":["STANMORE","WESTGATE"],"localityCount":2,"state":"NSW","stateFull":"New South Wales","country":"au","electorate":"Sydney","type":"Delivery Area","lat":-33.89418,"lng":151.16564},{"code":"2049","locality":"LEWISHAM","localities":["LEWISHAM","PETERSHAM","PETERSHAM NORTH"],"localityCount":3,"state":"NSW","stateFull":"New South Wales","country":"au","electorate":"Grayndler","type":"Delivery Area","lat":-33.897219,"lng":151.15085},{"code":"2050","locality":"CAMPERDOWN","localities":["CAMPERDOWN","MISSENDEN ROAD"],"localityCount":2,"state":"NSW","stateFull":"New South Wales","country":"au","electorate":"Sydney","type":"Delivery Area","lat":-33.89037,"lng":151.17598},{"code":"2052","locality":"UNSW SYDNEY","localities":["UNSW SYDNEY"],"localityCount":1,"state":"NSW","stateFull":"New South Wales","country":"au","electorate":"Barton","type":"LVR","lat":-33.906561,"lng":151.234417},{"code":"2055","locality":"NORTH SYDNEY","localities":["NORTH SYDNEY"],"localityCount":1,"state":"NSW","stateFull":"New South Wales","country":"au","electorate":"Bennelong","type":"Delivery Area","lat":-33.802837,"lng":151.104935},{"code":"2057","locality":"CHATSWOOD","localities":["CHATSWOOD"],"localityCount":1,"state":"NSW","stateFull":"New South Wales","country":"au","electorate":"Bennelong","type":"Post Office Boxes","lat":-33.791988,"lng":151.1899},{"code":"2058","locality":"NORTHERN SUBURBS MC","localities":["NORTHERN SUBURBS MC"],"localityCount":1,"state":"NSW","stateFull":"New South Wales","country":"au","electorate":"Bennelong","type":"Delivery Area","lat":-31.2532,"lng":146.921},{"code":"2059","locality":"NORTH SYDNEY","localities":["NORTH SYDNEY"],"localityCount":1,"state":"NSW","stateFull":"New South Wales","country":"au","electorate":"Bennelong","type":"Post Office Boxes","lat":-33.802837,"lng":151.104935},{"code":"2060","locality":"HMAS PLATYPUS","localities":["HMAS PLATYPUS","HMAS WATERHEN","LAVENDER BAY","MCMAHONS POINT","NORTH SYDNEY","NORTH SYDNEY SHOPPINGWORLD","WAVERTON"],"localityCount":7,"state":"NSW","stateFull":"New South Wales","country":"au","electorate":"Warringah","type":"Delivery Area","lat":-33.839863,"lng":151.204557},{"code":"2061","locality":"KIRRIBILLI","localities":["KIRRIBILLI","MILSONS POINT"],"localityCount":2,"state":"NSW","stateFull":"New South Wales","country":"au","electorate":"Warringah","type":"Delivery Area","lat":-33.848785,"lng":151.212372},{"code":"2062","locality":"CAMMERAY","localities":["CAMMERAY"],"localityCount":1,"state":"NSW","stateFull":"New South Wales","country":"au","electorate":"Bennelong","type":"Delivery Area","lat":-33.822837,"lng":151.21246},{"code":"2063","locality":"NORTHBRIDGE","localities":["NORTHBRIDGE"],"localityCount":1,"state":"NSW","stateFull":"New South Wales","country":"au","electorate":"Bennelong","type":"Delivery Area","lat":-33.812636,"lng":151.214797},{"code":"2064","locality":"ARTARMON","localities":["ARTARMON"],"localityCount":1,"state":"NSW","stateFull":"New South Wales","country":"au","electorate":"Bennelong","type":"Delivery Area","lat":-33.813209,"lng":151.183801},{"code":"2065","locality":"CROWS NEST","localities":["CROWS NEST","CROWS NEST DC","GORE HILL","GREENWICH","NAREMBURN","ROYAL NORTH SHORE HOSPITAL","ST LEONARDS","WOLLSTONECRAFT"],"localityCount":8,"state":"NSW","stateFull":"New South Wales","country":"au","electorate":"Bennelong","type":"Delivery Area","lat":-33.828361,"lng":151.192212},{"code":"2066","locality":"LANE COVE","localities":["LANE COVE","LANE COVE NORTH","LANE COVE WEST","LINLEY POINT","LONGUEVILLE","NORTHWOOD","OSBORNE PARK","RIVERVIEW"],"localityCount":8,"state":"NSW","stateFull":"New South Wales","country":"au","electorate":"Bennelong","type":"Delivery Area","lat":-33.818641,"lng":151.160912},{"code":"2067","locality":"CHATSWOOD","localities":["CHATSWOOD","CHATSWOOD WEST"],"localityCount":2,"state":"NSW","stateFull":"New South Wales","country":"au","electorate":"Bradfield","type":"Delivery Area","lat":-33.798378,"lng":151.17711},{"code":"2068","locality":"CASTLECRAG","localities":["CASTLECRAG","MIDDLE COVE","NORTH WILLOUGHBY","WILLOUGHBY","WILLOUGHBY EAST","WILLOUGHBY NORTH"],"localityCount":6,"state":"NSW","stateFull":"New South Wales","country":"au","electorate":"Bennelong","type":"Delivery Area","lat":-33.800881,"lng":151.202715},{"code":"2069","locality":"CASTLE COVE","localities":["CASTLE COVE","ROSEVILLE","ROSEVILLE CHASE"],"localityCount":3,"state":"NSW","stateFull":"New South Wales","country":"au","electorate":"Bradfield","type":"Delivery Area","lat":-33.780246,"lng":151.195368},{"code":"2070","locality":"EAST LINDFIELD","localities":["EAST LINDFIELD","LINDFIELD","LINDFIELD WEST"],"localityCount":3,"state":"NSW","stateFull":"New South Wales","country":"au","electorate":"Bradfield","type":"Delivery Area","lat":-33.78042,"lng":151.162007},{"code":"2071","locality":"EAST KILLARA","localities":["EAST KILLARA","KILLARA"],"localityCount":2,"state":"NSW","stateFull":"New South Wales","country":"au","electorate":"Bradfield","type":"Delivery Area","lat":-33.755364,"lng":151.181455},{"code":"2072","locality":"GORDON","localities":["GORDON"],"localityCount":1,"state":"NSW","stateFull":"New South Wales","country":"au","electorate":"Bradfield","type":"Delivery Area","lat":-33.754582,"lng":151.153176},{"code":"2073","locality":"PYMBLE","localities":["PYMBLE","WEST PYMBLE"],"localityCount":2,"state":"NSW","stateFull":"New South Wales","country":"au","electorate":"Bradfield","type":"Delivery Area","lat":-33.757296,"lng":151.130278},{"code":"2074","locality":"BOBBIN HEAD","localities":["BOBBIN HEAD","NORTH TURRAMURRA","SOUTH TURRAMURRA","TURRAMURRA","WARRAWEE"],"localityCount":5,"state":"NSW","stateFull":"New South Wales","country":"au","electorate":"Bradfield","type":"Delivery Area","lat":-33.735222,"lng":151.123716},{"code":"2075","locality":"NORTH ST IVES","localities":["NORTH ST IVES","ST IVES","ST IVES CHASE"],"localityCount":3,"state":"NSW","stateFull":"New South Wales","country":"au","electorate":"Bradfield","type":"Delivery Area","lat":-33.723693,"lng":151.16729},{"code":"2076","locality":"NORMANHURST","localities":["NORMANHURST","NORTH WAHROONGA","WAHROONGA"],"localityCount":3,"state":"NSW","stateFull":"New South Wales","country":"au","electorate":"Bradfield","type":"Delivery Area","lat":-33.723263,"lng":151.108249},{"code":"2077","locality":"ASQUITH","localities":["ASQUITH","HORNSBY","HORNSBY HEIGHTS","WAITARA"],"localityCount":4,"state":"NSW","stateFull":"New South Wales","country":"au","electorate":"Bradfield","type":"Delivery Area","lat":-33.691922,"lng":151.097508},{"code":"2079","locality":"MOUNT COLAH","localities":["MOUNT COLAH"],"localityCount":1,"state":"NSW","stateFull":"New South Wales","country":"au","electorate":"Bradfield","type":"Delivery Area","lat":-33.666637,"lng":151.112681},{"code":"2080","locality":"MOUNT KURING-GAI","localities":["MOUNT KURING-GAI"],"localityCount":1,"state":"NSW","stateFull":"New South Wales","country":"au","electorate":"Berowra","type":"Delivery Area","lat":-33.658174,"lng":151.143563},{"code":"2081","locality":"BEROWRA","localities":["BEROWRA","COWAN"],"localityCount":2,"state":"NSW","stateFull":"New South Wales","country":"au","electorate":"Berowra","type":"Delivery Area","lat":-33.619756,"lng":151.150498},{"code":"2082","locality":"BEROWRA CREEK","localities":["BEROWRA CREEK","BEROWRA HEIGHTS","BEROWRA WATERS"],"localityCount":3,"state":"NSW","stateFull":"New South Wales","country":"au","electorate":"Berowra","type":"Delivery Area","lat":-33.546209,"lng":151.138709},{"code":"2083","locality":"BAR POINT","localities":["BAR POINT","BROOKLYN","CHEERO POINT","COGRA BAY","DANGAR ISLAND","MILSONS PASSAGE","MOONEY MOONEY"],"localityCount":7,"state":"NSW","stateFull":"New South Wales","country":"au","electorate":"Robertson","type":"Delivery Area","lat":-33.525322,"lng":151.194452},{"code":"2084","locality":"AKUNA BAY","localities":["AKUNA BAY","COTTAGE POINT","DUFFYS FOREST","TERREY HILLS"],"localityCount":4,"state":"NSW","stateFull":"New South Wales","country":"au","electorate":"Mackellar","type":"Delivery Area","lat":-33.650999,"lng":151.216929},{"code":"2085","locality":"BELROSE","localities":["BELROSE","BELROSE WEST","DAVIDSON"],"localityCount":3,"state":"NSW","stateFull":"New South Wales","country":"au","electorate":"Mackellar","type":"Delivery Area","lat":-33.728782,"lng":151.211719},{"code":"2086","locality":"FRENCHS FOREST","localities":["FRENCHS FOREST","FRENCHS FOREST EAST"],"localityCount":2,"state":"NSW","stateFull":"New South Wales","country":"au","electorate":"Warringah","type":"Delivery Area","lat":-33.75185,"lng":151.229211},{"code":"2087","locality":"FORESTVILLE","localities":["FORESTVILLE","KILLARNEY HEIGHTS"],"localityCount":2,"state":"NSW","stateFull":"New South Wales","country":"au","electorate":"Warringah","type":"Delivery Area","lat":-33.766093,"lng":151.210531},{"code":"2088","locality":"MOSMAN","localities":["MOSMAN","SPIT JUNCTION"],"localityCount":2,"state":"NSW","stateFull":"New South Wales","country":"au","electorate":"Warringah","type":"Delivery Area","lat":-33.830687,"lng":151.243351},{"code":"2089","locality":"KURRABA POINT","localities":["KURRABA POINT","NEUTRAL BAY","NEUTRAL BAY JUNCTION"],"localityCount":3,"state":"NSW","stateFull":"New South Wales","country":"au","electorate":"Warringah","type":"Delivery Area","lat":-33.841496,"lng":151.222826},{"code":"2090","locality":"CREMORNE","localities":["CREMORNE","CREMORNE JUNCTION","CREMORNE POINT"],"localityCount":3,"state":"NSW","stateFull":"New South Wales","country":"au","electorate":"Warringah","type":"Delivery Area","lat":-33.828949,"lng":151.223094},{"code":"2091","locality":"HMAS PENGUIN","localities":["HMAS PENGUIN"],"localityCount":1,"state":"NSW","stateFull":"New South Wales","country":"au","electorate":"Mackellar","type":"Delivery Area","lat":-33.8279,"lng":151.261},{"code":"2092","locality":"SEAFORTH","localities":["SEAFORTH"],"localityCount":1,"state":"NSW","stateFull":"New South Wales","country":"au","electorate":"Warringah","type":"Delivery Area","lat":-33.796636,"lng":151.241813},{"code":"2093","locality":"BALGOWLAH","localities":["BALGOWLAH","BALGOWLAH HEIGHTS","CLONTARF","MANLY VALE","NORTH BALGOWLAH"],"localityCount":5,"state":"NSW","stateFull":"New South Wales","country":"au","electorate":"Warringah","type":"Delivery Area","lat":-33.79315,"lng":151.258069},{"code":"2094","locality":"FAIRLIGHT","localities":["FAIRLIGHT"],"localityCount":1,"state":"NSW","stateFull":"New South Wales","country":"au","electorate":"Warringah","type":"Delivery Area","lat":-33.795227,"lng":151.273242},{"code":"2095","locality":"MANLY","localities":["MANLY","MANLY EAST"],"localityCount":2,"state":"NSW","stateFull":"New South Wales","country":"au","electorate":"Warringah","type":"Delivery Area","lat":-33.815482,"lng":151.294675},{"code":"2096","locality":"CURL CURL","localities":["CURL CURL","FRESHWATER","HARBORD","QUEENSCLIFF"],"localityCount":4,"state":"NSW","stateFull":"New South Wales","country":"au","electorate":"Warringah","type":"Delivery Area","lat":-33.776781,"lng":151.28494},{"code":"2097","locality":"COLLAROY","localities":["COLLAROY","COLLAROY BEACH","COLLAROY PLATEAU","COLLAROY PLATEAU WEST","LONG REEF","WHEELER HEIGHTS"],"localityCount":6,"state":"NSW","stateFull":"New South Wales","country":"au","electorate":"Mackellar","type":"Delivery Area","lat":-33.739577,"lng":151.297895},{"code":"2099","locality":"CROMER","localities":["CROMER","CROMER HEIGHTS","DEE WHY","DEE WHY BEACH","NARRAWEENA","NORTH CURL CURL","WINGALA"],"localityCount":7,"state":"NSW","stateFull":"New South Wales","country":"au","electorate":"Warringah","type":"Delivery Area","lat":-33.748914,"lng":151.279999},{"code":"2100","locality":"ALLAMBIE","localities":["ALLAMBIE","ALLAMBIE HEIGHTS","BEACON HILL","BROOKVALE","NORTH MANLY","OXFORD FALLS","WARRINGAH MALL"],"localityCount":7,"state":"NSW","stateFull":"New South Wales","country":"au","electorate":"Warringah","type":"Delivery Area","lat":-33.766409,"lng":151.257781},{"code":"2101","locality":"ELANORA HEIGHTS","localities":["ELANORA HEIGHTS","INGLESIDE","NARRABEEN","NARRABEEN PENINSULA","NORTH NARRABEEN"],"localityCount":5,"state":"NSW","stateFull":"New South Wales","country":"au","electorate":"Mackellar","type":"Delivery Area","lat":-33.707117,"lng":151.27114},{"code":"2102","locality":"WARRIEWOOD","localities":["WARRIEWOOD","WARRIEWOOD DC","WARRIEWOOD SHOPPING SQUARE"],"localityCount":3,"state":"NSW","stateFull":"New South Wales","country":"au","electorate":"Mackellar","type":"Delivery Area","lat":-33.689941,"lng":151.290953},{"code":"2103","locality":"MONA VALE","localities":["MONA VALE"],"localityCount":1,"state":"NSW","stateFull":"New South Wales","country":"au","electorate":"Mackellar","type":"Delivery Area","lat":-33.679336,"lng":151.302825},{"code":"2104","locality":"BAYVIEW","localities":["BAYVIEW"],"localityCount":1,"state":"NSW","stateFull":"New South Wales","country":"au","electorate":"Mackellar","type":"Delivery Area","lat":-33.664921,"lng":151.290921},{"code":"2105","locality":"CHURCH POINT","localities":["CHURCH POINT","ELVINA BAY","LOVETT BAY","MCCARRS CREEK","MORNING BAY","SCOTLAND ISLAND"],"localityCount":6,"state":"NSW","stateFull":"New South Wales","country":"au","electorate":"Mackellar","type":"Delivery Area","lat":-33.642202,"lng":151.278293},{"code":"2106","locality":"NEWPORT","localities":["NEWPORT","NEWPORT BEACH"],"localityCount":2,"state":"NSW","stateFull":"New South Wales","country":"au","electorate":"Mackellar","type":"Delivery Area","lat":-33.660707,"lng":151.314599},{"code":"2107","locality":"AVALON","localities":["AVALON","AVALON BEACH","BILGOLA","BILGOLA BEACH","BILGOLA PLATEAU","CAREEL BAY","CLAREVILLE","PARADISE BEACH","TAYLORS POINT","WHALE BEACH"],"localityCount":10,"state":"NSW","stateFull":"New South Wales","country":"au","electorate":"Mackellar","type":"Delivery Area","lat":-33.634816,"lng":151.323289},{"code":"2108","locality":"COASTERS RETREAT","localities":["COASTERS RETREAT","CURRAWONG BEACH","GREAT MACKEREL BEACH","MORNING BAY","PALM BEACH","THE BASIN"],"localityCount":6,"state":"NSW","stateFull":"New South Wales","country":"au","electorate":"Mackellar","type":"Delivery Area","lat":-33.60382,"lng":151.322759},{"code":"2109","locality":"MACQUARIE UNIVERSITY","localities":["MACQUARIE UNIVERSITY"],"localityCount":1,"state":"NSW","stateFull":"New South Wales","country":"au","electorate":"Bennelong","type":"LVR","lat":-33.771558,"lng":151.113473},